[{"datasetid": "sanisettesparis2011", "recordid": "cb7aee1791ccce595e97d98fc0f72d05709abf52", "fields": {"objectid": 10, "arrondissement": "02", "nom_voie":"BOULEVARD DE SEBASTOPOL", "geom_x_y": [48.864828018946774, 2.351611260829617], "geom": {"type": "Point", "coordinates": [2.351611260829617, 48.864828018946774]}, "y": 129375.048287, "x": 601106.877435, "numero_voie": "85", "identifiant": "2/102", "horaires_ouverture": "6 h - 22 h"}, "geometry": {"type": "Point", "coordinates": [2.351611260829617, 48.864828018946774]}, "record_timestamp": "2017-01-01T00:01:04+01:00"},{"datasetid": "sanisettesparis2011", "recordid": "a47c22cf2fd31ba6b4a1ac6d1d2c699f92ee659a", "fields": {"objectid": 12, "arrondissement": "02", "nom_voie": "RUE REAUMUR", "geom_x_y": [48.86679354449764, 2.34957136374784], "geom": {"type": "Point", "coordinates": [2.34957136374784, 48.86679354449764]}, "y": 129593.588071, "x": 600957.183947, "numero_voie": "73", "identifiant": "2/105", "horaires_ouverture": "6 h - 22 h"}, "geometry": {"type": "Point", "coordinates": [2.34957136374784, 48.86679354449764]}, "record_timestamp": "2017-01-01T00:01:04+01:00"},{"datasetid": "sanisettesparis2011", "recordid": "474ca7c21586e7466dd942a7f15acb935fd1fb5e", "fields": {"objectid": 13, "arrondissement": "02", "nom_voie": "BOULEVARD DE SEBASTOPOL", "geom_x_y": [48.866819877360705, 2.352726645149509], "geom": {"type": "Point", "coordinates": [2.352726645149509, 48.866819877360705]}, "y": 129596.561431, "x": 601188.661476, "numero_voie": "109", "identifiant": "2/106", "horaires_ouverture": "6 h - 22 h"}, "geometry": {"type": "Point", "coordinates": [2.352726645149509, 48.866819877360705]}, "record_timestamp": "2017-01-01T00:01:04+01:00"},{"datasetid": "sanisettesparis2011", "recordid": "35c954d4422de82b95c6334642c550ccc38caf39", "fields": {"objectid": 16, "arrondissement": "02", "nom_voie": "BOULEVARD DES CAPUCINES", "geom_x_y": [48.87005823114267, 2.329345379329587], "geom": {"type": "Point", "coordinates": [2.329345379329587, 48.87005823114267]}, "y": 129956.564359, "x": 599473.399498, "numero_voie": "37", "identifiant": "2/111", "horaires_ouverture": "6 h - 22 h"}, "geometry": {"type": "Point", "coordinates": [2.329345379329587, 48.87005823114267]}, "record_timestamp": "2017-01-01T00:01:04+01:00"},{"datasetid": "sanisettesparis2011", "recordid": "d0484e67ceb69737a9a2732499555fb466feaef0", "fields": {"objectid": 22, "arrondissement": "02", "nom_voie": "RUE MONTMARTRE", "geom_x_y": [48.86874906559865, 2.3432359483868472], "geom": {"type": "Point", "coordinates": [2.3432359483868472, 48.86874906559865]}, "y": 129810.981979, "x": 600492.386344, "numero_voie": "117", "identifiant": "2/123", "horaires_ouverture": "6 h - 22 h"}, "geometry": {"type": "Point", "coordinates": [2.3432359483868472, 48.86874906559865]}, "record_timestamp": "2017-01-01T00:01:04+01:00"},{"datasetid": "sanisettesparis2011", "recordid": "b3707bc9e2d9974067828ce5d2a1e6ca45dce499", "fields": {"objectid": 36, "arrondissement": "04", "nom_voie": "RUE DE MOUSSY", "geom_x_y": [48.8578325125527, 2.355813051437258], "geom": {"type": "Point", "coordinates": [2.355813051437258, 48.8578325125527]}, "y": 128597.2136, "x": 601415.336016, "numero_voie": "10bis", "identifiant": "4/107", "horaires_ouverture": "24 h / 24"}, "geometry": {"type": "Point", "coordinates": [2.355813051437258, 48.8578325125527]}, "record_timestamp": "2017-01-01T00:01:04+01:00"},{"datasetid": "sanisettesparis2011", "recordid": "1b4527abb5cb6193825d8d81e9ce97a12c26392b", "fields": {"objectid": 40, "arrondissement": "04", "nom_voie": "RUE DE RIVOLI", "geom_x_y": [48.85678942545494, 2.354183099093415], "geom": {"type": "Point", "coordinates": [2.354183099093415, 48.85678942545494]}, "y": 128481.192061, "x": 601295.764055, "numero_voie": "face 50", "identifiant": "4/122", "horaires_ouverture": "24 h / 24"}, "geometry": {"type": "Point", "coordinates": [2.354183099093415, 48.85678942545494]}, "record_timestamp": "2017-01-01T00:01:04+01:00"},{"datasetid": "sanisettesparis2011", "recordid": "ec89d97978d1d07291ab94d2ea8dcd3112f6e0e1", "fields": {"objectid": 41, "arrondissement": "04", "nom_voie": "RUE SAINT ANTOINE", "geom_x_y": [48.85530319342062, 2.360419707390965], "geom": {"type": "Point", "coordinates": [2.360419707390965, 48.85530319342062]}, "y": 128316.048616, "x": 601753.438231, "numero_voie": "123", "identifiant": "4/127", "horaires_ouverture": "24 h / 24"}, "geometry": {"type": "Point", "coordinates": [2.360419707390965, 48.85530319342062]}, "record_timestamp": "2017-01-01T00:01:04+01:00"},{"datasetid": "sanisettesparis2011", "recordid": "02885e4c2584abae1a678f424198090bd49045ba", "fields": {"objectid": 42, "arrondissement": "04", "nom_voie": "RUE SAINT MARTIN", "geom_x_y": [48.86079042337449, 2.351315744725904], "geom": {"type": "Point", "coordinates": [2.351315744725904, 48.86079042337449]}, "y": 128926.060506, "x": 601085.282148, "numero_voie": "123", "identifiant": "4/130", "horaires_ouverture": "24 h / 24"}, "geometry": {"type": "Point", "coordinates": [2.351315744725904, 48.86079042337449]}, "record_timestamp": "2017-01-01T00:01:04+01:00"},{"datasetid": "sanisettesparis2011", "recordid": "bf1f88d45b781e0758f2818d5bb525afbab49dbd", "fields": {"objectid": 45, "arrondissement": "05", "nom_voie": "BOULEVARD DE PORT ROYAL", "geom_x_y": [48.83920071353255, 2.33873159224037], "geom": {"type": "Point", "coordinates": [2.33873159224037, 48.83920071353255]}, "y": 126525.163833, "x": 600162.025593, "numero_voie": "88 ter", "identifiant": "5/103", "horaires_ouverture": "24 h / 24"}, "geometry": {"type": "Point", "coordinates": [2.33873159224037, 48.83920071353255]}, "record_timestamp": "2017-01-01T00:01:04+01:00"},{"datasetid": "sanisettesparis2011", "recordid": "318371e330db7129d98eec80fba9ccd1c163d0e7", "fields": {"objectid": 48, "arrondissement": "05", "nom_voie": "RUE MONGE", "geom_x_y": [48.84312296749093, 2.3520729908247002], "geom": {"type": "Point", "coordinates": [2.3520729908247002, 48.84312296749093]}, "y": 126961.437654, "x": 601141.234686, "numero_voie": "face 75 bis", "identifiant": "5/111", "horaires_ouverture": "24 h / 24"}, "geometry": {"type": "Point", "coordinates": [2.3520729908247002, 48.84312296749093]}, "record_timestamp": "2017-01-01T00:01:04+01:00"},{"datasetid": "sanisettesparis2011", "recordid": "f52fdf3629fbb4a54c61f31115d04a750a4dc290", "fields": {"objectid": 56, "arrondissement": "06", "nom_voie": "BOULEVARD SAINT MICHEL", "geom_x_y": [48.84175443523745, 2.33748462835467], "geom": {"type": "Point", "coordinates": [2.33748462835467, 48.84175443523745]}, "y": 126809.137659, "x": 600070.493068, "numero_voie": "face 139", "identifiant": "6/103", "horaires_ouverture": "24 h / 24"}, "geometry": {"type": "Point", "coordinates": [2.33748462835467, 48.84175443523745]}, "record_timestamp": "2017-01-01T00:01:04+01:00"},{"datasetid": "sanisettesparis2011", "recordid": "81324511bbff959fc9ea196937ef37f8c83280a5", "fields": {"objectid": 61, "arrondissement": "06", "nom_voie": "BOULEVARD SAINT GERMAIN", "geom_x_y": [48.85442812807721, 2.330995204306215], "geom": {"type": "Point", "coordinates": [2.330995204306215, 48.85442812807721]}, "y": 128218.475657, "x": 599594.287804, "numero_voie": "186", "identifiant": "6/146", "horaires_ouverture": "24 h / 24"}, "geometry": {"type": "Point", "coordinates": [2.330995204306215, 48.85442812807721]}, "record_timestamp": "2017-01-01T00:01:04+01:00"},{"datasetid": "sanisettesparis2011", "recordid": "509bcc2e756cec5f3dfd00fc82c44a5b5737ee09", "fields": {"objectid": 64, "arrondissement": "07", "nom_voie": "PLACE DE FINLANDE", "geom_x_y": [48.86247698908471, 2.310808620054225], "geom": {"type": "Point", "coordinates": [2.310808620054225, 48.86247698908471]}, "y": 129113.820555, "x": 598113.299778, "numero_voie": "41", "identifiant": "7/105", "horaires_ouverture": "24 h / 24"}, "geometry": {"type": "Point", "coordinates": [2.310808620054225, 48.86247698908471]}, "record_timestamp": "2017-01-01T00:01:04+01:00"},{"datasetid": "sanisettesparis2011", "recordid": "93ba5f1c6690c1c54b98b46dbd80abec6bc0de1a", "fields": {"objectid": 65, "arrondissement": "07", "nom_voie": "AVENUE CHARLES FLOQUET", "geom_x_y": [48.855104387148856, 2.295895905231061], "geom": {"type": "Point", "coordinates": [2.295895905231061, 48.855104387148856]}, "y": 128294.464, "x": 597018.73, "identifiant": "7/124", "horaires_ouverture": "24 h / 24"}, "geometry": {"type": "Point", "coordinates": [2.295895905231061, 48.855104387148856]}, "record_timestamp": "2017-01-01T00:01:04+01:00"},{"datasetid": "sanisettesparis2011", "recordid": "bbb673b87f25d0f6449b4c1e2f5866d3767e378b", "fields": {"objectid": 67, "arrondissement": "07", "nom_voie": "RUE DE SEVRES", "geom_x_y": [48.849834875844934, 2.323054653730249], "geom": {"type": "Point", "coordinates": [2.323054653730249, 48.849834875844934]}, "y": 127707.775615, "x": 599011.512815, "numero_voie": "40", "identifiant": "7/127", "horaires_ouverture": "6 h - 22 h"}, "geometry": {"type": "Point", "coordinates": [2.323054653730249, 48.849834875844934]}, "record_timestamp": "2017-01-01T00:01:04+01:00"},{"datasetid": "sanisettesparis2011", "recordid": "418aacbb6db6faea8e39ae4210eda2f39d017c07", "fields": {"objectid": 71, "arrondissement": "08", "nom_voie": "COURS LA REINE", "geom_x_y": [48.86514883793256, 2.318088027847812], "geom": {"type": "Point", "coordinates": [2.318088027847812, 48.86514883793256]}, "y": 129410.776017, "x": 598647.453475, "identifiant": "8/103", "horaires_ouverture": "24 h / 24"}, "geometry": {"type": "Point", "coordinates": [2.318088027847812, 48.86514883793256]}, "record_timestamp": "2017-01-01T00:01:04+01:00"},{"datasetid": "sanisettesparis2011", "recordid": "b44e5d8afb611c8256eef9adb6497498679b0685", "fields": {"objectid": 80, "arrondissement": "09", "nom_voie": "BOULEVARD HAUSSMANN", "geom_x_y": [48.87213368108026, 2.338544798981386], "geom": {"type": "Point", "coordinates": [2.338544798981386, 48.87213368108026]}, "y": 130187.333388, "x": 600148.239495, "numero_voie": "1", "identifiant": "9/102", "horaires_ouverture": "6 h - 22 h"}, "geometry": {"type": "Point", "coordinates": [2.338544798981386, 48.87213368108026]}, "record_timestamp": "2017-01-01T00:01:04+01:00"},{"datasetid": "sanisettesparis2011", "recordid": "ea294c1549963bcc3330263b3b24c68c462fdd16", "fields": {"objectid": 86, "arrondissement": "09", "nom_voie": "BOULEVARD DE ROCHECHOUART", "geom_x_y": [48.8834206142702, 2.347433171347692], "geom": {"type": "Point", "coordinates": [2.347433171347692, 48.8834206142702]}, "y": 131442.5047, "x": 600800.065808, "numero_voie": "17", "identifiant": "9/116", "horaires_ouverture": "24 h / 24"}, "geometry": {"type": "Point", "coordinates": [2.347433171347692, 48.8834206142702]}, "record_timestamp": "2017-01-01T00:01:04+01:00"},{"datasetid": "sanisettesparis2011", "recordid": "37648654da1341b798efbee2f17d98e9ef37a666", "fields": {"objectid": 88, "arrondissement": "09", "nom_voie": "AVENUE TRUDAINE", "geom_x_y": [48.88166539533085, 2.345516262075593], "geom": {"type": "Point", "coordinates": [2.345516262075593, 48.88166539533085]}, "y": 131247.304413, "x": 600659.506252, "numero_voie": "11", "identifiant": "9/119", "horaires_ouverture": "6 h - 22 h"}, "geometry": {"type": "Point", "coordinates": [2.345516262075593, 48.88166539533085]}, "record_timestamp": "2017-01-01T00:01:04+01:00"},{"datasetid": "sanisettesparis2011", "recordid": "d52802d827a02cc31401a8cc8394ca1679c289e1", "fields": {"objectid": 89, "arrondissement": "09", "nom_voie": "BOULEVARD DE ROCHECHOUART", "geom_x_y": [48.88231614934598, 2.3414329158415272], "geom": {"type": "Point", "coordinates": [2.3414329158415272, 48.88231614934598]}, "y": 131319.640859, "x": 600360.028562, "numero_voie": "51", "identifiant": "9/135", "horaires_ouverture": "24 h / 24"}, "geometry": {"type": "Point", "coordinates": [2.3414329158415272, 48.88231614934598]}, "record_timestamp": "2017-01-01T00:01:04+01:00"},{"datasetid": "sanisettesparis2011", "recordid": "27d1009bb41fb2e66df86abf637e9c89e8c90b0d", "fields": {"objectid": 91, "arrondissement": "10", "nom_voie": "BOULEVARD SAINT MARTIN", "geom_x_y": [48.86899965543666, 2.356173279832786], "geom": {"type": "Point", "coordinates": [2.356173279832786, 48.86899965543666]}, "y": 129839.014662, "x": 601441.452196, "numero_voie": "20", "identifiant": "10/101", "horaires_ouverture": "24 h / 24"}, "geometry": {"type": "Point", "coordinates": [2.356173279832786, 48.86899965543666]}, "record_timestamp": "2017-01-01T00:01:04+01:00"},{"datasetid": "sanisettesparis2011", "recordid": "e4118a0a865abf80fce6793352058bd1658e3e59", "fields": {"objectid": 94, "arrondissement": "10", "nom_voie": "SQUARE ALBAN SATRAGNE", "geom_x_y": [48.87578070604331, 2.355862673890456], "geom": {"type": "Point", "coordinates": [2.355862673890456, 48.87578070604331]}, "y": 130593.066379, "x": 601418.477819, "identifiant": "10/104", "horaires_ouverture": "24 h / 24"}, "geometry": {"type": "Point", "coordinates": [2.355862673890456, 48.87578070604331]}, "record_timestamp": "2017-01-01T00:01:04+01:00"},{"datasetid": "sanisettesparis2011", "recordid": "379e0113e641e1772b9828d1437a55b26a78f854", "fields": {"objectid": 98, "arrondissement": "10", "nom_voie": "AVENUE CLAUDE VELLEFAUX", "geom_x_y": [48.87231507521738, 2.369583031825527], "geom": {"type": "Point", "coordinates": [2.369583031825527, 48.87231507521738]}, "y": 130208.036682, "x": 602425.017149, "numero_voie": "face 4", "identifiant": "10/108", "horaires_ouverture": "6 h - 1 h"}, "geometry": {"type": "Point", "coordinates": [2.369583031825527, 48.87231507521738]}, "record_timestamp": "2017-01-01T00:01:04+01:00"},{"datasetid": "sanisettesparis2011", "recordid": "62ed5b1a44b8f17832326f98d22e6cd14cb36f54", "fields": {"objectid": 100, "arrondissement": "10", "nom_voie": "RUE DE METZ", "geom_x_y": [48.87075131619064, 2.354561493683801], "geom": {"type": "Point", "coordinates": [2.354561493683801, 48.87075131619064]}, "y": 130033.770944, "x": 601323.168011, "numero_voie": "face au 1", "identifiant": "10/110", "horaires_ouverture": "24 h / 24"}, "geometry": {"type": "Point", "coordinates": [2.354561493683801, 48.87075131619064]}, "record_timestamp": "2017-01-01T00:01:04+01:00"},{"datasetid": "sanisettesparis2011", "recordid": "bce2037ad1167a1c3eed4951815adf52c8f545f4", "fields": {"objectid": 107, "arrondissement": "10", "nom_voie": "BOULEVARD DE LA VILLETTE", "geom_x_y": [48.87227962212216, 2.376627951361052], "geom": {"type": "Point", "coordinates": [2.376627951361052, 48.87227962212216]}, "y": 130204.345648, "x": 602941.792118, "numero_voie": "face 1", "identifiant": "10/118", "horaires_ouverture": "24 h / 24"}, "geometry": {"type": "Point", "coordinates": [2.376627951361052, 48.87227962212216]}, "record_timestamp": "2017-01-01T00:01:04+01:00"},{"datasetid": "sanisettesparis2011", "recordid": "8566cc2fc5eabbfb39cf029e42ba28de35cbce9d", "fields": {"objectid": 115, "arrondissement": "10", "nom_voie": "BOULEVARD DE MAGENTA", "geom_x_y": [48.88224462487047, 2.350534224849961], "geom": {"type": "Point", "coordinates": [2.350534224849961, 48.88224462487047]}, "y": 131311.771694, "x": 601027.5131, "numero_voie": "145", "identifiant": "10/129", "horaires_ouverture": "6 h - 22 h"}, "geometry": {"type": "Point", "coordinates": [2.350534224849961, 48.88224462487047]}, "record_timestamp": "2017-01-01T00:01:04+01:00"},{"datasetid": "sanisettesparis2011", "recordid": "45f6ee47128d3a684e107cc884d114ed13a9e254", "fields": {"objectid": 116, "arrondissement": "10", "nom_voie": "PLACE DE LA BATAILLE DE STALINGRAD", "geom_x_y": [48.88357327405631, 2.368742468326459], "geom": {"type": "Point", "coordinates": [2.368742468326459, 48.88357327405631]}, "y": 131459.929356, "x": 602362.83149, "numero_voie": "11", "identifiant": "10/131", "horaires_ouverture": "6 h - 22 h"}, "geometry": {"type": "Point", "coordinates": [2.368742468326459, 48.88357327405631]}, "record_timestamp": "2017-01-01T00:01:04+01:00"},{"datasetid": "sanisettesparis2011", "recordid": "9d5ec9222f15e382805ef62918007e85096b746c", "fields": {"objectid": 124, "arrondissement": "11", "nom_voie": "BOULEVARD DU TEMPLE", "geom_x_y": [48.86622478164211, 2.3650032617181322], "geom": {"type": "Point", "coordinates": [2.3650032617181322, 48.86622478164211]}, "y": 129530.654206, "x": 602089.324272, "numero_voie": "54", "identifiant": "11/103", "horaires_ouverture": "24 h / 24"}, "geometry": {"type": "Point", "coordinates": [2.3650032617181322, 48.86622478164211]}, "record_timestamp": "2017-01-01T00:01:04+01:00"},{"datasetid": "sanisettesparis2011", "recordid": "701df881a983f2558f2e17159cd22972d4bbaa0e", "fields": {"objectid": 144, "arrondissement": "11", "nom_voie": "AVENUE PARMENTIER", "geom_x_y": [48.86968423764372, 2.371160534648695], "geom": {"type": "Point", "coordinates": [2.371160534648695, 48.86968423764372]}, "y": 129915.537748, "x": 602540.865792, "numero_voie": "135", "identifiant": "11/140", "horaires_ouverture": "24 h / 24"}, "geometry": {"type": "Point", "coordinates": [2.371160534648695, 48.86968423764372]}, "record_timestamp": "2017-01-01T00:01:04+01:00"},{"datasetid": "sanisettesparis2011", "recordid": "66f37d73cab602d1d8c51891f894b9543c707244", "fields": {"objectid": 154, "arrondissement": "12", "nom_voie": "RUE FERNAND FOUREAU", "geom_x_y": [48.846198155116454, 2.411269403182583], "geom": {"type": "Point", "coordinates": [2.411269403182583, 48.846198155116454]}, "y": 127306.004965, "x": 605485.739757, "numero_voie": "2", "identifiant": "12/114", "horaires_ouverture": "6 h - 22 h"}, "geometry": {"type": "Point", "coordinates": [2.411269403182583, 48.846198155116454]}, "record_timestamp": "2017-01-01T00:01:04+01:00"},{"datasetid": "sanisettesparis2011", "recordid": "fcfe7b852c3d6c410a769b4edd02fb56145dadb6", "fields": {"objectid": 168, "arrondissement": "12", "nom_voie": "BOULEVARD DIDEROT", "geom_x_y": [48.84611256741499, 2.376547754029987], "geom": {"type": "Point", "coordinates": [2.376547754029987, 48.84611256741499]}, "y": 127294.547291, "x": 602937.435278, "numero_voie": "32", "identifiant": "12/156", "horaires_ouverture": "24 h / 24"}, "geometry": {"type": "Point", "coordinates": [2.376547754029987, 48.84611256741499]}, "record_timestamp": "2017-01-01T00:01:04+01:00"},{"datasetid": "sanisettesparis2011", "recordid": "9563df19a063defa6b5f785a06941c1ae90211b9", "fields": {"objectid": 170, "arrondissement": "13", "nom_voie": "BOULEVARD AUGUSTE BLANQUI", "geom_x_y": [48.829484711629576, 2.34942543957019], "geom": {"type": "Point", "coordinates": [2.34942543957019, 48.829484711629576]}, "y": 125444.81627, "x": 600947.162113, "numero_voie": "face 61", "identifiant": "13/101", "horaires_ouverture": "24 h / 24"}, "geometry": {"type": "Point", "coordinates": [2.34942543957019, 48.829484711629576]}, "record_timestamp": "2017-01-01T00:01:04+01:00"},{"datasetid": "sanisettesparis2011", "recordid": "575fa6d7d9cee2f0f479ee879839fcfce59df31c", "fields": {"objectid": 187, "arrondissement": "13", "nom_voie": "RUE DU CHEVALERET", "geom_x_y": [48.83032574369729, 2.375200712970527], "geom": {"type": "Point", "coordinates": [2.375200712970527, 48.83032574369729]}, "y": 125538.988783, "x": 602839.461644, "numero_voie": "face 97", "identifiant": "13/127", "horaires_ouverture": "24 h / 24"}, "geometry": {"type": "Point", "coordinates": [2.375200712970527, 48.83032574369729]}, "record_timestamp": "2017-01-01T00:01:04+01:00"},{"datasetid": "sanisettesparis2011", "recordid": "fc720e43a33598af89d62d4d6c928ea57ff08c18", "fields": {"objectid": 196, "arrondissement": "13", "nom_voie": "BOULEVARD DE L HOPITAL", "geom_x_y": [48.83963427542653, 2.361754662773166], "geom": {"type": "Point", "coordinates": [2.361754662773166, 48.83963427542653]}, "y": 126573.685304, "x": 601851.967985, "identifiant": "13/165", "horaires_ouverture": "6 h - 1 h"}, "geometry": {"type": "Point", "coordinates": [2.361754662773166, 48.83963427542653]}, "record_timestamp": "2017-01-01T00:01:04+01:00"},{"datasetid": "sanisettesparis2011", "recordid": "291a70ed3fc243feb61f9f49e3d2a868ab9bbfd6", "fields": {"objectid": 199, "arrondissement": "14", "nom_voie": "BOULEVARD EDGAR QUINET", "geom_x_y": [48.84047147658251, 2.326831217925536], "geom": {"type": "Point", "coordinates": [2.326831217925536, 48.84047147658251]}, "y": 126666.516347, "x": 599288.523578, "numero_voie": "face 32", "identifiant": "14/102", "horaires_ouverture": "24 h / 24"}, "geometry": {"type": "Point", "coordinates": [2.326831217925536, 48.84047147658251]}, "record_timestamp": "2017-01-01T00:01:04+01:00"},{"datasetid": "sanisettesparis2011", "recordid": "d10231ae311cdca20d444b530722c33726e6b351", "fields": {"objectid": 206, "arrondissement": "14", "nom_voie": "AVENUE REILLE", "geom_x_y": [48.82444208254364, 2.33853893041639], "geom": {"type": "Point", "coordinates": [2.33853893041639, 48.82444208254364]}, "y": 124883.992146, "x": 600147.917061, "numero_voie": "face 40", "identifiant": "14/109", "horaires_ouverture": "24 h / 24"}, "geometry": {"type": "Point", "coordinates": [2.33853893041639, 48.82444208254364]}, "record_timestamp": "2017-01-01T00:01:04+01:00"},{"datasetid": "sanisettesparis2011", "recordid": "45a738e0259a33986261874fdf3e290f8cc3994e", "fields": {"objectid": 208, "arrondissement": "14", "nom_voie": "RUE DU DEPART", "geom_x_y": [48.84217571324312, 2.323164988646387], "geom": {"type": "Point", "coordinates": [2.323164988646387, 48.84217571324312]}, "y": 126856.069655, "x": 599019.453706, "numero_voie": "23", "identifiant": "14/114", "horaires_ouverture": "24 h / 24"}, "geometry": {"type": "Point", "coordinates": [2.323164988646387, 48.84217571324312]}, "record_timestamp": "2017-01-01T00:01:04+01:00"},{"datasetid": "sanisettesparis2011", "recordid": "f34dd92f560b5d8adf4af9f597b75e37e3d4a421", "fields": {"objectid": 214, "arrondissement": "14", "nom_voie": "BOULEVARD ARAGO", "geom_x_y": [48.83473555131084, 2.3368038918486462], "geom": {"type": "Point", "coordinates": [2.3368038918486462, 48.83473555131084]}, "y": 126028.631928, "x": 600020.525577, "numero_voie": "98", "identifiant": "14/122", "horaires_ouverture": "6 h - 1 h"}, "geometry": {"type": "Point", "coordinates": [2.3368038918486462, 48.83473555131084]}, "record_timestamp": "2017-01-01T00:01:04+01:00"},{"datasetid": "sanisettesparis2011", "recordid": "e1abce44c2f58d7f8cb27fdd9da71abbd05e253c", "fields": {"objectid": 216, "arrondissement": "14", "nom_voie": "BOULEVARD DE PORT ROYAL", "geom_x_y": [48.83827022611262, 2.341805767854998], "geom": {"type": "Point", "coordinates": [2.341805767854998, 48.83827022611262]}, "y": 126421.704366, "x": 600387.685319, "numero_voie": "95", "identifiant": "14/124", "horaires_ouverture": "6 h - 22 h"}, "geometry": {"type": "Point", "coordinates": [2.341805767854998, 48.83827022611262]}, "record_timestamp": "2017-01-01T00:01:04+01:00"},{"datasetid": "sanisettesparis2011", "recordid": "f473ea9c278110c4503eb8957c0e628041d0da80", "fields": {"objectid": 224, "arrondissement": "14", "nom_voie": "BOULEVARD BRUNE", "geom_x_y": [48.82434142631821, 2.321116924107991], "geom": {"type": "Point", "coordinates": [2.321116924107991, 48.82434142631821]}, "y": 124872.911883, "x": 598868.711177, "numero_voie": "161", "identifiant": "14/145", "horaires_ouverture": "6 h - 22 h"}, "geometry": {"type": "Point", "coordinates": [2.321116924107991, 48.82434142631821]}, "record_timestamp": "2017-01-01T00:01:04+01:00"},{"datasetid": "sanisettesparis2011", "recordid": "7cc760ca26f6694092f3fc1ce365213726cf0f77", "fields": {"objectid": 227, "arrondissement": "14", "nom_voie": "AVENUE DU MAINE", "geom_x_y": [48.829610248695154, 2.326307903251042], "geom": {"type": "Point", "coordinates": [2.326307903251042, 48.829610248695154]}, "y": 125458.74454, "x": 599249.940548, "numero_voie": "199", "identifiant": "14/152", "horaires_ouverture": "6 h - 22 h"}, "geometry": {"type": "Point", "coordinates": [2.326307903251042, 48.829610248695154]}, "record_timestamp": "2017-01-01T00:01:04+01:00"},{"datasetid": "sanisettesparis2011", "recordid": "89255f87314d64ea3a4abc8276fa0de9a82a77cd", "fields": {"objectid": 235, "arrondissement": "15", "nom_voie": "RUE DE LA CONVENTION", "geom_x_y": [48.83941843956059, 2.291457976199311], "geom": {"type": "Point", "coordinates": [2.291457976199311, 48.83941843956059]}, "y": 126550.362152, "x": 596692.024655, "numero_voie": "150", "identifiant": "15/109", "horaires_ouverture": "6 h - 22 h"}, "geometry": {"type": "Point", "coordinates": [2.291457976199311, 48.83941843956059]}, "record_timestamp": "2017-01-01T00:01:04+01:00"},{"datasetid": "sanisettesparis2011", "recordid": "e9804235f0e20cf33264b736becab66b70da239e", "fields": {"objectid": 251, "arrondissement": "15", "nom_voie": "BOULEVARD PASTEUR", "geom_x_y": [48.84473649798762, 2.311014247753456], "geom": {"type": "Point", "coordinates": [2.311014247753456, 48.84473649798762]}, "y": 127141.060086, "x": 598127.706498, "numero_voie": "6", "identifiant": "15/133", "horaires_ouverture": "24 h / 24"}, "geometry": {"type": "Point", "coordinates": [2.311014247753456, 48.84473649798762]}, "record_timestamp": "2017-01-01T00:01:04+01:00"},{"datasetid": "sanisettesparis2011", "recordid": "a465ba6942e677a17e7d3e5c336131101471f3fd", "fields": {"objectid": 255, "arrondissement": "15", "nom_voie": "RUE DE LA FEDERATION", "geom_x_y": [48.852846357416354, 2.297988286878163], "geom": {"type": "Point", "coordinates": [2.297988286878163, 48.852846357416354]}, "y": 128043.288376, "x": 597172.137418, "numero_voie": "86", "identifiant": "15/142", "horaires_ouverture": "24 h / 24"}, "geometry": {"type": "Point", "coordinates": [2.297988286878163, 48.852846357416354]}, "record_timestamp": "2017-01-01T00:01:04+01:00"},{"datasetid": "sanisettesparis2011", "recordid": "99154dd1b63d094a495aa1e3b906432c20689d40", "fields": {"objectid": 259, "arrondissement": "15", "nom_voie": "RUE DE L ABBE GROULT", "geom_x_y": [48.83566847654808, 2.302595750589671], "geom": {"type": "Point", "coordinates": [2.302595750589671, 48.83566847654808]}, "y": 126132.932667, "x": 597509.373843, "numero_voie": "139", "identifiant": "15/149", "horaires_ouverture": "6 h - 22 h"}, "geometry": {"type": "Point", "coordinates": [2.302595750589671, 48.83566847654808]}, "record_timestamp": "2017-01-01T00:01:04+01:00"},{"datasetid": "sanisettesparis2011", "recordid": "f7a1042e1a9540a527588fcbe8c43677594411d0", "fields": {"objectid": 260, "arrondissement": "15", "nom_voie": "PLACE DUPLEIX", "geom_x_y": [48.851045334925004, 2.295122574851614], "geom": {"type": "Point", "coordinates": [2.295122574851614, 48.851045334925004]}, "y": 127843.125758, "x": 596961.732911, "numero_voie": "face 22", "identifiant": "15/154", "horaires_ouverture": "24 h / 24"}, "geometry": {"type": "Point", "coordinates": [2.295122574851614, 48.851045334925004]}, "record_timestamp": "2017-01-01T00:01:04+01:00"},{"datasetid": "sanisettesparis2011", "recordid": "1942122df0377375cb6f6d5d08285b815ed64556", "fields": {"objectid": 261, "arrondissement": "15", "nom_voie": "BOULEVARD DU MONTPARNASSE", "geom_x_y": [48.846521369929214, 2.316945648173304], "geom": {"type": "Point", "coordinates": [2.316945648173304, 48.846521369929214]}, "y": 127339.409336, "x": 598563.092431, "numero_voie": "6", "identifiant": "15/155", "horaires_ouverture": "24 h / 24"}, "geometry": {"type": "Point", "coordinates": [2.316945648173304, 48.846521369929214]}, "record_timestamp": "2017-01-01T00:01:04+01:00"},{"datasetid": "sanisettesparis2011", "recordid": "3cc1727bce7d925fdb9bfd21e2fa62865418aacb", "fields": {"objectid": 265, "arrondissement": "16", "nom_voie": "AVENUE PAUL DOUMER", "geom_x_y": [48.86215796069435, 2.286382033607376], "geom": {"type": "Point", "coordinates": [2.286382033607376, 48.86215796069435]}, "y": 129079.248831, "x": 596321.135719, "identifiant": "16/101", "horaires_ouverture": "24 h / 24"}, "geometry": {"type": "Point", "coordinates": [2.286382033607376, 48.86215796069435]}, "record_timestamp": "2017-01-01T00:01:04+01:00"},{"datasetid": "sanisettesparis2011", "recordid": "82485d0dd2e9c98517961079276cf0537ae815be", "fields": {"objectid": 273, "arrondissement": "16", "nom_voie": "RUE MIRABEAU", "geom_x_y": [48.84593889627871, 2.269081550085641], "geom": {"type": "Point", "coordinates": [2.269081550085641, 48.84593889627871]}, "y": 127276.673498, "x": 595050.194916, "numero_voie": "37", "identifiant": "16/111", "horaires_ouverture": "6 h - 22 h"}, "geometry": {"type": "Point", "coordinates": [2.269081550085641, 48.84593889627871]}, "record_timestamp": "2017-01-01T00:01:04+01:00"},{"datasetid": "sanisettesparis2011", "recordid": "6e14e4dd1fbc64ee9c84bb2f0e0c9fff4e248a64", "fields": {"objectid": 276, "arrondissement": "16", "nom_voie": "AVENUE DU GENERAL SARRAIL", "geom_x_y": [48.84581311871515, 2.255987039503988], "geom": {"type": "Point", "coordinates": [2.255987039503988, 48.84581311871515]}, "y": 127263.634183, "x": 594089.137845, "numero_voie": "face 21", "identifiant": "16/123", "horaires_ouverture": "6 h - 22 h"}, "geometry": {"type": "Point", "coordinates": [2.255987039503988, 48.84581311871515]}, "record_timestamp": "2017-01-01T00:01:04+01:00"},{"datasetid": "sanisettesparis2011", "recordid": "39fa60c886fee56980397aaf8c3844a1107e0e4f", "fields": {"objectid": 290, "arrondissement": "17", "nom_voie": "AVENUE DE LA PORTE D ASNIERES", "geom_x_y": [48.89055081333051, 2.303467686847891], "geom": {"type": "Point", "coordinates": [2.303467686847891, 48.89055081333051]}, "y": 132235.858204, "x": 597576.094782, "numero_voie": "face 3", "identifiant": "17/136", "horaires_ouverture": "6 h - 22 h"}, "geometry": {"type": "Point", "coordinates": [2.303467686847891, 48.89055081333051]}, "record_timestamp": "2017-01-01T00:01:04+01:00"},{"datasetid": "sanisettesparis2011", "recordid": "100b9a6b4a9077dcecd61de4202d1ffb3e38eddb", "fields": {"objectid": 294, "arrondissement": "17", "nom_voie": "BOULEVARD GOUVION SAINT CYR", "geom_x_y": [48.88188419392366, 2.286017529747108], "geom": {"type": "Point", "coordinates": [2.286017529747108, 48.88188419392366]}, "y": 131272.836242, "x": 596295.8754, "numero_voie": "51", "identifiant": "17/164", "horaires_ouverture": "6 h - 22 h"}, "geometry": {"type": "Point", "coordinates": [2.286017529747108, 48.88188419392366]}, "record_timestamp": "2017-01-01T00:01:04+01:00"},{"datasetid": "sanisettesparis2011", "recordid": "d3bc28f70d2f0d832239accc35c8b40aabf50301", "fields": {"objectid": 297, "arrondissement": "17", "nom_voie": "BOULEVARD DES BATIGNOLLES", "geom_x_y": [48.88334503374101, 2.326311832778868], "geom": {"type": "Point", "coordinates": [2.326311832778868, 48.88334503374101]}, "y": 131434.091437, "x": 599251.076022, "numero_voie": "face 10", "identifiant": "17/179", "horaires_ouverture": "24 h / 24"}, "geometry": {"type": "Point", "coordinates": [2.326311832778868, 48.88334503374101]}, "record_timestamp": "2017-01-01T00:01:04+01:00"},{"datasetid": "sanisettesparis2011", "recordid": "6c3e36a362968ce9f77eb73991f4fab0c6ca6a0f", "fields": {"objectid": 301, "arrondissement": "18", "nom_voie": "BOULEVARD DE CLICHY", "geom_x_y": [48.88438239298197, 2.330275000203259], "geom": {"type": "Point", "coordinates": [2.330275000203259, 48.88438239298197]}, "y": 131549.415, "x": 599541.736, "numero_voie": "face 118", "identifiant": "18/104", "horaires_ouverture": "24 h / 24"}, "geometry": {"type": "Point", "coordinates": [2.330275000203259, 48.88438239298197]}, "record_timestamp": "2017-01-01T00:01:04+01:00"},{"datasetid": "sanisettesparis2011", "recordid": "c7bfec3363542a7a1f00add595743321b3c6679e", "fields": {"objectid": 303, "arrondissement": "18", "nom_voie": "PLACE SUZANNE VALADON", "geom_x_y": [48.88445504408538, 2.342736026528085], "geom": {"type": "Point", "coordinates": [2.342736026528085, 48.88445504408538]}, "y": 131557.494514, "x": 600455.579621, "identifiant": "18/106", "horaires_ouverture": "24 h / 24"}, "geometry": {"type": "Point", "coordinates": [2.342736026528085, 48.88445504408538]}, "record_timestamp": "2017-01-01T00:01:04+01:00"},{"datasetid": "sanisettesparis2011", "recordid": "71d8f8734331fbc300ffc0fb78b1ef8b63cdc176", "fields": {"objectid": 309, "arrondissement": "18", "nom_voie": "RUE DE L EVANGILE", "geom_x_y": [48.8920795026513, 2.361548105312066], "geom": {"type": "Point", "coordinates": [2.361548105312066, 48.8920795026513]}, "y": 132405.626891, "x": 601834.907908, "numero_voie": "oppos\u00e9 au 10", "identifiant": "18/112", "horaires_ouverture": "6 h - 22 h"}, "geometry": {"type": "Point", "coordinates": [2.361548105312066, 48.8920795026513]}, "record_timestamp": "2017-01-01T00:01:04+01:00"},{"datasetid": "sanisettesparis2011", "recordid": "29ebe19e2d9755cf7ef1bbbf949af2e85c600665", "fields": {"objectid": 311, "arrondissement": "18", "nom_voie": "BOULEVARD BARBES", "geom_x_y": [48.88849414111792, 2.349430634358364], "geom": {"type": "Point", "coordinates": [2.349430634358364, 48.88849414111792]}, "y": 132006.707691, "x": 600946.461931, "numero_voie": "43", "identifiant": "18/114", "horaires_ouverture": "24 h / 24"}, "geometry": {"type": "Point", "coordinates": [2.349430634358364, 48.88849414111792]}, "record_timestamp": "2017-01-01T00:01:04+01:00"},{"datasetid": "sanisettesparis2011", "recordid": "0d6f69a45e6b132da3cdbe7621636f13ea6d90e8", "fields": {"objectid": 318, "arrondissement": "18", "nom_voie": "BOULEVARD DE ROCHECHOUART", "geom_x_y": [48.88324708289284, 2.345906186882481], "geom": {"type": "Point", "coordinates": [2.345906186882481, 48.88324708289284]}, "y": 131423.19272, "x": 600688.082644, "numero_voie": "face 52", "identifiant": "18/122", "horaires_ouverture": "24 h / 24"}, "geometry": {"type": "Point", "coordinates": [2.345906186882481, 48.88324708289284]}, "record_timestamp": "2017-01-01T00:01:04+01:00"},{"datasetid": "sanisettesparis2011", "recordid": "ff2bb35b1305c0432cf23eb60e0fd1829502cdd2", "fields": {"objectid": 319, "arrondissement": "18", "nom_voie": "RUE JEAN HENRI FABRE", "geom_x_y": [48.90106116282343, 2.335537440784673], "geom": {"type": "Point", "coordinates": [2.335537440784673, 48.90106116282343]}, "y": 133404.087108, "x": 599927.699332, "numero_voie": "oppos\u00e9 au 94", "identifiant": "18/123", "horaires_ouverture": "6 h - 22 h"}, "geometry": {"type": "Point", "coordinates": [2.335537440784673, 48.90106116282343]}, "record_timestamp": "2017-01-01T00:01:04+01:00"},{"datasetid": "sanisettesparis2011", "recordid": "9aef0b12bb41884bbe313c074334380b752228a8", "fields": {"objectid": 324, "arrondissement": "18", "nom_voie": "AVENUE DE LA PORTE DE SAINT OUEN", "geom_x_y": [48.89789971412332, 2.329375812035528], "geom": {"type": "Point", "coordinates": [2.329375812035528, 48.89789971412332]}, "y": 133052.556, "x": 599475.945, "numero_voie": "2", "identifiant": "18/134", "horaires_ouverture": "24 h / 24"}, "geometry": {"type": "Point", "coordinates": [2.329375812035528, 48.89789971412332]}, "record_timestamp": "2017-01-01T00:01:04+01:00"},{"datasetid": "sanisettesparis2011", "recordid": "5a560813da7acf0566ddfdd009ffaf550c8393ee", "fields": {"objectid": 326, "arrondissement": "18", "nom_voie": "BOULEVARD NEY", "geom_x_y": [48.89877330803369, 2.369298124088574], "geom": {"type": "Point", "coordinates": [2.369298124088574, 48.89877330803369]}, "y": 133150.201, "x": 602402.858, "numero_voie": "face 3", "identifiant": "18/141", "horaires_ouverture": "6 h - 22 h"}, "geometry": {"type": "Point", "coordinates": [2.369298124088574, 48.89877330803369]}, "record_timestamp": "2017-01-01T00:01:04+01:00"},{"datasetid": "sanisettesparis2011", "recordid": "355abc994b0e4ad75a8c7f8ca8e633d63cf95624", "fields": {"objectid": 341, "arrondissement": "19", "nom_voie": "RUE DE BELLEVILLE", "geom_x_y": [48.87555441425665, 2.397798984308038], "geom": {"type": "Point", "coordinates": [2.397798984308038, 48.87555441425665]}, "y": 130569.550875, "x": 604494.479014, "numero_voie": "251", "identifiant": "19/104", "horaires_ouverture": "6 h - 22 h"}, "geometry": {"type": "Point", "coordinates": [2.397798984308038, 48.87555441425665]}, "record_timestamp": "2017-01-01T00:01:04+01:00"},{"datasetid": "sanisettesparis2011", "recordid": "28f41b43ee39c833b9c1504e6441d19520c9ab0b", "fields": {"objectid": 344, "arrondissement": "19", "nom_voie": "AVENUE MATHURIN MOREAU", "geom_x_y": [48.87844763434919, 2.373949708978971], "geom": {"type": "Point", "coordinates": [2.373949708978971, 48.87844763434919]}, "y": 130890.131526, "x": 602744.996148, "numero_voie": "29", "identifiant": "19/107", "horaires_ouverture": "6 h - 22 h"}, "geometry": {"type": "Point", "coordinates": [2.373949708978971, 48.87844763434919]}, "record_timestamp": "2017-01-01T00:01:04+01:00"},{"datasetid": "sanisettesparis2011", "recordid": "f24613cfd20ad539c7b44c1fe946a041596a40a6", "fields": {"objectid": 346, "arrondissement": "19", "nom_voie": "RUE CURIAL", "geom_x_y": [48.89583453970983, 2.375661473541809], "geom": {"type": "Point", "coordinates": [2.375661473541809, 48.89583453970983]}, "y": 132823.631137, "x": 602869.554281, "numero_voie": "92", "identifiant": "19/109", "horaires_ouverture": "6 h - 22 h"}, "geometry": {"type": "Point", "coordinates": [2.375661473541809, 48.89583453970983]}, "record_timestamp": "2017-01-01T00:01:04+01:00"},{"datasetid": "sanisettesparis2011", "recordid": "07967f80ed39a2ba0fa76c8f46d6eb954780cb70", "fields": {"objectid": 354, "arrondissement": "19", "nom_voie": "AVENUE CORENTIN CARIOU", "geom_x_y": [48.89731268357005, 2.385653351572138], "geom": {"type": "Point", "coordinates": [2.385653351572138, 48.89731268357005]}, "y": 132988.431616, "x": 603602.045605, "numero_voie": "26 bis", "identifiant": "19/119", "horaires_ouverture": "24 h / 24"}, "geometry": {"type": "Point", "coordinates": [2.385653351572138, 48.89731268357005]}, "record_timestamp": "2017-01-01T00:01:04+01:00"},{"datasetid": "sanisettesparis2011", "recordid": "57ff7dc910d264b2f445f09ed7f7a4b3d717a80b", "fields": {"objectid": 358, "arrondissement": "19", "nom_voie": "RUE DE CRIMEE", "geom_x_y": [48.88883562170698, 2.379033969150523], "geom": {"type": "Point", "coordinates": [2.379033969150523, 48.88883562170698]}, "y": 132045.481, "x": 603117.257, "identifiant": "19/125", "horaires_ouverture": "6 h - 1 h"}, "geometry": {"type": "Point", "coordinates": [2.379033969150523, 48.88883562170698]}, "record_timestamp": "2017-01-01T00:01:04+01:00"},{"datasetid": "sanisettesparis2011", "recordid": "f091066b83799bb912adc52d9debd8775c642c15", "fields": {"objectid": 360, "arrondissement": "19", "nom_voie": "AVENUE DE FLANDRE", "geom_x_y": [48.890960407287245, 2.3772429949868332], "geom": {"type": "Point", "coordinates": [2.3772429949868332, 48.890960407287245]}, "y": 132281.685929, "x": 602985.799516, "numero_voie": "100", "identifiant": "19/128", "horaires_ouverture": "6 h - 22 h"}, "geometry": {"type": "Point", "coordinates": [2.3772429949868332, 48.890960407287245]}, "record_timestamp": "2017-01-01T00:01:04+01:00"},{"datasetid": "sanisettesparis2011", "recordid": "e3cd1d787607b0028516d91fbe593260045e0e75", "fields": {"objectid": 370, "arrondissement": "20", "nom_voie": "PLACE DE L ADJUDANT VINCENOT", "geom_x_y": [48.8706908077231, 2.409359001552625], "geom": {"type": "Point", "coordinates": [2.409359001552625, 48.8706908077231]}, "y": 130029.467056, "x": 605342.916372, "identifiant": "20/102", "horaires_ouverture": "6 h - 22 h"}, "geometry": {"type": "Point", "coordinates": [2.409359001552625, 48.8706908077231]}, "record_timestamp": "2017-01-01T00:01:04+01:00"},{"datasetid": "sanisettesparis2011", "recordid": "025bf6675ee357cf94240552269dd0b9373ab440", "fields": {"objectid": 372, "arrondissement": "20", "nom_voie": "BOULEVARD DE MENILMONTANT", "geom_x_y": [48.86675503761971, 2.383389733409092], "geom": {"type": "Point", "coordinates": [2.383389733409092, 48.86675503761971]}, "y": 129590.294709, "x": 603438.173934, "numero_voie": "face 148", "identifiant": "20/104", "horaires_ouverture": "24 h / 24"}, "geometry": {"type": "Point", "coordinates": [2.383389733409092, 48.86675503761971]}, "record_timestamp": "2017-01-01T00:01:04+01:00"},{"datasetid": "sanisettesparis2011", "recordid": "40e18db4ab738541cc616467e89bf6e69e132608", "fields": {"objectid": 374, "arrondissement": "20", "nom_voie": "AVENUE DU PROFESSEUR ANDRE LEMIERE", "geom_x_y": [48.85833811229018, 2.414715118235164], "geom": {"type": "Point", "coordinates": [2.414715118235164, 48.85833811229018]}, "y": 128656.232131, "x": 605737.238008, "identifiant": "20/106", "horaires_ouverture": "6 h - 22 h"}, "geometry": {"type": "Point", "coordinates": [2.414715118235164, 48.85833811229018]}, "record_timestamp": "2017-01-01T00:01:04+01:00"},{"datasetid": "sanisettesparis2011", "recordid": "993d223a43f3ab837051fe4319234bfad67dc349", "fields": {"objectid": 379, "arrondissement": "20", "nom_voie": "AVENUE DU PROFESSEUR ANDRE LEMIERE", "geom_x_y": [48.85532756186436, 2.415233911242912], "geom": {"type": "Point", "coordinates": [2.415233911242912, 48.85532756186436]}, "y": 128321.496522, "x": 605775.651784, "numero_voie": "12", "identifiant": "20/111", "horaires_ouverture": "6 h - 22 h"}, "geometry": {"type": "Point", "coordinates": [2.415233911242912, 48.85532756186436]}, "record_timestamp": "2017-01-01T00:01:04+01:00"},{"datasetid": "sanisettesparis2011", "recordid": "82cd101398b94fe39a31da0b6d8096caf4363767", "fields": {"objectid": 381, "arrondissement": "20", "nom_voie": "RUE DES PYRENEES", "geom_x_y": [48.85704901651628, 2.404517261700919], "geom": {"type": "Point", "coordinates": [2.404517261700919, 48.85704901651628]}, "y": 128512.16, "x": 604989.102, "numero_voie": "face 121", "identifiant": "20/113", "horaires_ouverture": "6 h - 22 h"}, "geometry": {"type": "Point", "coordinates": [2.404517261700919, 48.85704901651628]}, "record_timestamp": "2017-01-01T00:01:04+01:00"},{"datasetid": "sanisettesparis2011", "recordid": "7de8fc8e7a16ddf2c5c81238bc72d7e0ed0f0120", "fields": {"objectid": 385, "arrondissement": "20", "nom_voie": "PLACE MARTIN NADAUD", "geom_x_y": [48.864949742210534, 2.394717602147172], "geom": {"type": "Point", "coordinates": [2.394717602147172, 48.864949742210534]}, "y": 129390.124661, "x": 604269.364671, "numero_voie": "face 4", "identifiant": "20/121", "horaires_ouverture": "24 h / 24"}, "geometry": {"type": "Point", "coordinates": [2.394717602147172, 48.864949742210534]}, "record_timestamp": "2017-01-01T00:01:04+01:00"},{"datasetid": "sanisettesparis2011", "recordid": "47147466189b8aeb16a40a1f7139ad16bef424b2", "fields": {"objectid": 387, "arrondissement": "20", "nom_voie": "RUE SORBIER", "geom_x_y": [48.86842573567739, 2.3898886471572203], "geom": {"type": "Point", "coordinates": [2.3898886471572203, 48.86842573567739]}, "y": 129776.394991, "x": 603914.818137, "numero_voie": "3", "identifiant": "20/127", "horaires_ouverture": "24 h / 24"}, "geometry": {"type": "Point", "coordinates": [2.3898886471572203, 48.86842573567739]}, "record_timestamp": "2017-01-01T00:01:04+01:00"},{"datasetid": "sanisettesparis2011", "recordid": "fd7248cf4c78012547dbd73c0ee29b0a9c3a708a", "fields": {"objectid": 7, "arrondissement": "01", "nom_voie": "PLACE DES DEUX ECUS", "geom_x_y": [48.863156685268876, 2.341836179865835], "geom": {"type": "Point", "coordinates": [2.341836179865835, 48.863156685268876]}, "y": 129189.09703, "x": 600389.74031, "numero_voie": "39", "identifiant": "1/128", "horaires_ouverture": "24 h / 24"}, "geometry": {"type": "Point", "coordinates": [2.341836179865835, 48.863156685268876]}, "record_timestamp": "2017-01-01T00:01:04+01:00"},{"datasetid": "sanisettesparis2011", "recordid": "7322d5829c24e026579760a63d4167591c07f2ec", "fields": {"objectid": 8, "arrondissement": "01", "nom_voie": "RUE DE LA LINGERIE", "geom_x_y": [48.86028377771548, 2.34647836638173], "geom": {"type": "Point", "coordinates": [2.34647836638173, 48.86028377771548]}, "y": 128869.662525, "x": 600730.366008, "numero_voie": "2", "identifiant": "1/130", "horaires_ouverture": "24 h / 24"}, "geometry": {"type": "Point", "coordinates": [2.34647836638173, 48.86028377771548]}, "record_timestamp": "2017-01-01T00:01:04+01:00"},{"datasetid": "sanisettesparis2011", "recordid": "eefe561fb86f3438fb75d068cb046a252b89c9da", "fields": {"objectid": 15, "arrondissement": "02", "nom_voie": "PLACE DE LA BOURSE", "geom_x_y": [48.8689183629196, 2.340626397833137], "geom": {"type": "Point", "coordinates": [2.340626397833137, 48.8689183629196]}, "y": 129829.794032, "x": 600300.950767, "numero_voie": "face 13", "identifiant": "2/109", "horaires_ouverture": "6 h - 22 h"}, "geometry": {"type": "Point", "coordinates": [2.340626397833137, 48.8689183629196]}, "record_timestamp": "2017-01-01T00:01:04+01:00"},{"datasetid": "sanisettesparis2011", "recordid": "6cae328384a1909514cc2ad122dc8e71ec1f4aa2", "fields": {"objectid": 17, "arrondissement": "02", "nom_voie": "BOULEVARD DES CAPUCINES", "geom_x_y": [48.8702743131037, 2.330665687327337], "geom": {"type": "Point", "coordinates": [2.330665687327337, 48.8702743131037]}, "y": 129980.584519, "x": 599570.255758, "numero_voie": "27", "identifiant": "2/112", "horaires_ouverture": "24 h / 24"}, "geometry": {"type": "Point", "coordinates": [2.330665687327337, 48.8702743131037]}, "record_timestamp": "2017-01-01T00:01:04+01:00"},{"datasetid": "sanisettesparis2011", "recordid": "3fe975fc1490a60370497c2210e89bc8aa971e0b", "fields": {"objectid": 31, "arrondissement": "04", "nom_voie": "BOULEVARD BOURDON", "geom_x_y": [48.849930705384836, 2.366735494522012], "geom": {"type": "Point", "coordinates": [2.366735494522012, 48.849930705384836]}, "y": 127718.790838, "x": 602217.120385, "numero_voie": "21 bis", "identifiant": "4/101", "horaires_ouverture": "6 h - 22 h"}, "geometry": {"type": "Point", "coordinates": [2.366735494522012, 48.849930705384836]}, "record_timestamp": "2017-01-01T00:01:04+01:00"},{"datasetid": "sanisettesparis2011", "recordid": "2ee4f96145e2aa0eeac46d358a90d262cb2d735a", "fields": {"objectid": 32, "arrondissement": "04", "nom_voie": "QUAI DE GESVRES", "geom_x_y": [48.856486157358184, 2.349796459913592], "geom": {"type": "Point", "coordinates": [2.349796459913592, 48.856486157358184]}, "y": 128447.402107, "x": 600973.89189, "numero_voie": "6", "identifiant": "4/102", "horaires_ouverture": "24 h / 24"}, "geometry": {"type": "Point", "coordinates": [2.349796459913592, 48.856486157358184]}, "record_timestamp": "2017-01-01T00:01:04+01:00"},{"datasetid": "sanisettesparis2011", "recordid": "361ba23070e71957c73ea564b4318503da6bca8e", "fields": {"objectid": 33, "arrondissement": "04", "nom_voie": "BOULEVARD BOURDON", "geom_x_y": [48.85264269270479, 2.368356696645447], "geom": {"type": "Point", "coordinates": [2.368356696645447, 48.85264269270479]}, "y": 128020.414834, "x": 602335.970213, "numero_voie": "41", "identifiant": "4/103", "horaires_ouverture": "24 h / 24"}, "geometry": {"type": "Point", "coordinates": [2.368356696645447, 48.85264269270479]}, "record_timestamp": "2017-01-01T00:01:04+01:00"},{"datasetid": "sanisettesparis2011", "recordid": "dad166952ee0c629bb866c10e4c63473f0ece646", "fields": {"objectid": 37, "arrondissement": "04", "nom_voie": "RUE AUBRY LE BOUCHER", "geom_x_y": [48.86021286751078, 2.350397746492964], "geom": {"type": "Point", "coordinates": [2.350397746492964, 48.86021286751078]}, "y": 128861.823002, "x": 601017.93912, "numero_voie": "face 2", "identifiant": "4/113", "horaires_ouverture": "24 h / 24"}, "geometry": {"type": "Point", "coordinates": [2.350397746492964, 48.86021286751078]}, "record_timestamp": "2017-01-01T00:01:04+01:00"},{"datasetid": "sanisettesparis2011", "recordid": "98005967685ed33323d4927ade4bde3bd8fe717a", "fields": {"objectid": 39, "arrondissement": "04", "nom_voie": "RUE SAINT MARTIN", "geom_x_y": [48.8582009700761, 2.349797596697657], "geom": {"type": "Point", "coordinates": [2.349797596697657, 48.8582009700761]}, "y": 128638.090535, "x": 600973.942933, "numero_voie": "14", "identifiant": "4/120", "horaires_ouverture": "24 h / 24"}, "geometry": {"type": "Point", "coordinates": [2.349797596697657, 48.8582009700761]}, "record_timestamp": "2017-01-01T00:01:04+01:00"},{"datasetid": "sanisettesparis2011", "recordid": "cff1f378f2e827bbf899abaa6d1b94e43287f731", "fields": {"objectid": 43, "arrondissement": "04", "nom_voie": "RUE SAINT MARTIN", "geom_x_y": [48.860523845175756, 2.351171125609475], "geom": {"type": "Point", "coordinates": [2.351171125609475, 48.860523845175756]}, "y": 128896.414692, "x": 601074.676822, "numero_voie": "115", "identifiant": "4/131", "horaires_ouverture": "24 h / 24"}, "geometry": {"type": "Point", "coordinates": [2.351171125609475, 48.860523845175756]}, "record_timestamp": "2017-01-01T00:01:04+01:00"},{"datasetid": "sanisettesparis2011", "recordid": "1c80f431866ed6b3c79e2665caced7995dbeefde", "fields": {"objectid": 44, "arrondissement": "05", "nom_voie": "RUE POLIVEAU", "geom_x_y": [48.84039331319135, 2.361273260901118], "geom": {"type": "Point", "coordinates": [2.361273260901118, 48.84039331319135]}, "y": 126658.079175, "x": 601816.604902, "numero_voie": "4", "identifiant": "5/101", "horaires_ouverture": "24 h / 24"}, "geometry": {"type": "Point", "coordinates": [2.361273260901118, 48.84039331319135]}, "record_timestamp": "2017-01-01T00:01:04+01:00"},{"datasetid": "sanisettesparis2011", "recordid": "37fafd4248ff51855c9245aa52f995b35dca0b46", "fields": {"objectid": 46, "arrondissement": "05", "nom_voie": "BOULEVARD SAINT GERMAIN", "geom_x_y": [48.84933025898464, 2.35484617831496], "geom": {"type": "Point", "coordinates": [2.35484617831496, 48.84933025898464]}, "y": 127651.739022, "x": 601344.61505, "numero_voie": "9", "identifiant": "5/104", "horaires_ouverture": "6 h - 22 h"}, "geometry": {"type": "Point", "coordinates": [2.35484617831496, 48.84933025898464]}, "record_timestamp": "2017-01-01T00:01:04+01:00"},{"datasetid": "sanisettesparis2011", "recordid": "43b7bbb78634c1c454e694b813d7c523a8b1d05c", "fields": {"objectid": 57, "arrondissement": "06", "nom_voie": "BOULEVARD SAINT MICHEL", "geom_x_y": [48.846129237525595, 2.340044291249991], "geom": {"type": "Point", "coordinates": [2.340044291249991, 48.846129237525595]}, "y": 127295.624681, "x": 600258.350318, "numero_voie": "face 73", "identifiant": "6/112", "horaires_ouverture": "24 h / 24"}, "geometry": {"type": "Point", "coordinates": [2.340044291249991, 48.846129237525595]}, "record_timestamp": "2017-01-01T00:01:04+01:00"},{"datasetid": "sanisettesparis2011", "recordid": "284440d0c1e4b0eb6a7eb68adeff4a984a4a47e8", "fields": {"objectid": 59, "arrondissement": "06", "nom_voie": "RUE DU FOUR", "geom_x_y": [48.85272198320083, 2.334590268412054], "geom": {"type": "Point", "coordinates": [2.334590268412054, 48.85272198320083]}, "y": 128028.738337, "x": 599858.088783, "numero_voie": "17", "identifiant": "6/140", "horaires_ouverture": "24 h / 24"}, "geometry": {"type": "Point", "coordinates": [2.334590268412054, 48.85272198320083]}, "record_timestamp": "2017-01-01T00:01:04+01:00"},{"datasetid": "sanisettesparis2011", "recordid": "880a677f1bf2ac79deba4882d96b7108f68f8296", "fields": {"objectid": 66, "arrondissement": "07", "nom_voie": "RUE DE BABYLONE", "geom_x_y": [48.85162682743579, 2.32518012982191], "geom": {"type": "Point", "coordinates": [2.32518012982191, 48.85162682743579]}, "y": 127907.016454, "x": 599167.526668, "numero_voie": "face 12", "identifiant": "7/126", "horaires_ouverture": "24 h / 24"}, "geometry": {"type": "Point", "coordinates": [2.32518012982191, 48.85162682743579]}, "record_timestamp": "2017-01-01T00:01:04+01:00"},{"datasetid": "sanisettesparis2011", "recordid": "7eb18656fac5405f7463aac5b6a1758b45dd10d6", "fields": {"objectid": 73, "arrondissement": "08", "nom_voie": "AVENUE MARCEAU", "geom_x_y": [48.865193338474064, 2.30018344605526], "geom": {"type": "Point", "coordinates": [2.30018344605526, 48.865193338474064]}, "y": 129416.200724, "x": 597333.894291, "numero_voie": "2", "identifiant": "8/108", "horaires_ouverture": "24 h / 24"}, "geometry": {"type": "Point", "coordinates": [2.30018344605526, 48.865193338474064]}, "record_timestamp": "2017-01-01T00:01:04+01:00"},{"datasetid": "sanisettesparis2011", "recordid": "ae97395bd6a4d52caa18a1b00100657499565c16", "fields": {"objectid": 75, "arrondissement": "08", "nom_voie": "AVENUE FRANKLIN D ROOSEVELT", "geom_x_y": [48.87014131131522, 2.310160912731215], "geom": {"type": "Point", "coordinates": [2.310160912731215, 48.87014131131522]}, "y": 129966.114852, "x": 598066.081821, "numero_voie": "4", "identifiant": "8/110", "horaires_ouverture": "6 h - 22 h"}, "geometry": {"type": "Point", "coordinates": [2.310160912731215, 48.87014131131522]}, "record_timestamp": "2017-01-01T00:01:04+01:00"},{"datasetid": "sanisettesparis2011", "recordid": "e2420b852d07fcb1068a780be4cf3c33cb44a706", "fields": {"objectid": 78, "arrondissement": "08", "nom_voie": "AVENUE DE FRIEDLAND", "geom_x_y": [48.87461348591688, 2.302361992970424], "geom": {"type": "Point", "coordinates": [2.302361992970424, 48.87461348591688]}, "y": 130463.652826, "x": 597494.203387, "numero_voie": "face 19", "identifiant": "8/124", "horaires_ouverture": "24 h / 24"}, "geometry": {"type": "Point", "coordinates": [2.302361992970424, 48.87461348591688]}, "record_timestamp": "2017-01-01T00:01:04+01:00"},{"datasetid": "sanisettesparis2011", "recordid": "40e5e6be86c4d3ec6f518273fc4fcb6dddf2ea57", "fields": {"objectid": 79, "arrondissement": "08", "nom_voie": "AVENUE DE MESSINE", "geom_x_y": [48.87541798569831, 2.31511516886159], "geom": {"type": "Point", "coordinates": [2.31511516886159, 48.87541798569831]}, "y": 130552.769736, "x": 598429.682433, "numero_voie": "face 4", "identifiant": "8/127", "horaires_ouverture": "24 h / 24"}, "geometry": {"type": "Point", "coordinates": [2.31511516886159, 48.87541798569831]}, "record_timestamp": "2017-01-01T00:01:04+01:00"},{"datasetid": "sanisettesparis2011", "recordid": "d60d00276f18e2f85a3bbd5726173f907f1ecbb3", "fields": {"objectid": 83, "arrondissement": "09", "nom_voie": "BOULEVARD DE CLICHY", "geom_x_y": [48.882089017822835, 2.339163302411379], "geom": {"type": "Point", "coordinates": [2.339163302411379, 48.882089017822835]}, "y": 131294.375135, "x": 600193.577557, "numero_voie": "5", "identifiant": "9/113", "horaires_ouverture": "24 h / 24"}, "geometry": {"type": "Point", "coordinates": [2.339163302411379, 48.882089017822835]}, "record_timestamp": "2017-01-01T00:01:04+01:00"},{"datasetid": "sanisettesparis2011", "recordid": "0dd216eab376a4380723546aa279a6965ec0b4c7", "fields": {"objectid": 87, "arrondissement": "09", "nom_voie": "BOULEVARD DE CLICHY", "geom_x_y": [48.88353487898769, 2.333530248134982], "geom": {"type": "Point", "coordinates": [2.333530248134982, 48.88353487898769]}, "y": 131455.156473, "x": 599780.4592, "numero_voie": "74", "identifiant": "9/117", "horaires_ouverture": "24 h / 24"}, "geometry": {"type": "Point", "coordinates": [2.333530248134982, 48.88353487898769]}, "record_timestamp": "2017-01-01T00:01:04+01:00"},{"datasetid": "sanisettesparis2011", "recordid": "1cab18a1a0b5e2f7618fb487aff677c4fb60d98e", "fields": {"objectid": 90, "arrondissement": "09", "nom_voie": "BOULEVARD DE CLICHY", "geom_x_y": [48.8839813080106, 2.331784834078105], "geom": {"type": "Point", "coordinates": [2.331784834078105, 48.8839813080106]}, "y": 131504.806124, "x": 599652.458442, "numero_voie": "65", "identifiant": "9/136", "horaires_ouverture": "24 h / 24"}, "geometry": {"type": "Point", "coordinates": [2.331784834078105, 48.8839813080106]}, "record_timestamp": "2017-01-01T00:01:04+01:00"},{"datasetid": "sanisettesparis2011", "recordid": "afa7e962ea58ff72aad42d7f4412470a0b31f6dc", "fields": {"objectid": 92, "arrondissement": "10", "nom_voie": "PLACE DU COLONEL FABIEN", "geom_x_y": [48.87798177617535, 2.370083901538699], "geom": {"type": "Point", "coordinates": [2.370083901538699, 48.87798177617535]}, "y": 130838.194041, "x": 602461.481464, "identifiant": "10/102", "horaires_ouverture": "6 h - 22 h"}, "geometry": {"type": "Point", "coordinates": [2.370083901538699, 48.87798177617535]}, "record_timestamp": "2017-01-01T00:01:04+01:00"},{"datasetid": "sanisettesparis2011", "recordid": "49f268c21c8f669e3649c5156e7da3541285cdeb", "fields": {"objectid": 96, "arrondissement": "10", "nom_voie": "BOULEVARD DE LA VILLETTE", "geom_x_y": [48.87348074112042, 2.375281776729692], "geom": {"type": "Point", "coordinates": [2.375281776729692, 48.87348074112042]}, "y": 130337.85912, "x": 602842.976941, "numero_voie": "25", "identifiant": "10/106", "horaires_ouverture": "6 h - 22 h"}, "geometry": {"type": "Point", "coordinates": [2.375281776729692, 48.87348074112042]}, "record_timestamp": "2017-01-01T00:01:04+01:00"},{"datasetid": "sanisettesparis2011", "recordid": "84c261887e9a64cc02538cb660e376b40915eb1c", "fields": {"objectid": 97, "arrondissement": "10", "nom_voie": "AVENUE DE VERDUN", "geom_x_y": [48.87630404447861, 2.361395767776341], "geom": {"type": "Point", "coordinates": [2.361395767776341, 48.87630404447861]}, "y": 130651.381351, "x": 601824.305217, "numero_voie": "1", "identifiant": "10/107", "horaires_ouverture": "24 h / 24"}, "geometry": {"type": "Point", "coordinates": [2.361395767776341, 48.87630404447861]}, "record_timestamp": "2017-01-01T00:01:04+01:00"},{"datasetid": "sanisettesparis2011", "recordid": "573880fa4fc05dd6c4982bea69a1d2a30fcf78bb", "fields": {"objectid": 105, "arrondissement": "10", "nom_voie": "RUE DES ECLUSES SAINT MARTIN", "geom_x_y": [48.87623873088722, 2.368177609189517], "geom": {"type": "Point", "coordinates": [2.368177609189517, 48.87623873088722]}, "y": 130644.305506, "x": 602321.743419, "numero_voie": "2", "identifiant": "10/116", "horaires_ouverture": "6 h - 1 h"}, "geometry": {"type": "Point", "coordinates": [2.368177609189517, 48.87623873088722]}, "record_timestamp": "2017-01-01T00:01:04+01:00"},{"datasetid": "sanisettesparis2011", "recordid": "520fcc736833c898bc3951ac466846e912240296", "fields": {"objectid": 106, "arrondissement": "10", "nom_voie": "BOULEVARD DE MAGENTA", "geom_x_y": [48.87715340154196, 2.355100897897021], "geom": {"type": "Point", "coordinates": [2.355100897897021, 48.87715340154196]}, "y": 130745.696913, "x": 601362.565838, "numero_voie": "face 85 bis", "identifiant": "10/117", "horaires_ouverture": "24 h / 24"}, "geometry": {"type": "Point", "coordinates": [2.355100897897021, 48.87715340154196]}, "record_timestamp": "2017-01-01T00:01:04+01:00"},{"datasetid": "sanisettesparis2011", "recordid": "4dfa93fcca6b50cb0a46bdd7962a605c21cabe32", "fields": {"objectid": 112, "arrondissement": "10", "nom_voie": "BOULEVARD DE MAGENTA", "geom_x_y": [48.88327008982752, 2.349610007491825], "geom": {"type": "Point", "coordinates": [2.349610007491825, 48.88327008982752]}, "y": 131425.791911, "x": 600959.712559, "numero_voie": "oppos\u00e9 au 168", "identifiant": "10/123", "horaires_ouverture": "6 h - 22 h"}, "geometry": {"type": "Point", "coordinates": [2.349610007491825, 48.88327008982752]}, "record_timestamp": "2017-01-01T00:01:04+01:00"},{"datasetid": "sanisettesparis2011", "recordid": "bccf0cdbaffd6ea59ee50fba1dd4255910aa1491", "fields": {"objectid": 118, "arrondissement": "10", "nom_voie": "RUE DE MAZAGRAN", "geom_x_y": [48.87049160232466, 2.351378016169541], "geom": {"type": "Point", "coordinates": [2.351378016169541, 48.87049160232466]}, "y": 130004.839311, "x": 601089.645335, "numero_voie": "5", "identifiant": "10/139", "horaires_ouverture": "24 h / 24"}, "geometry": {"type": "Point", "coordinates": [2.351378016169541, 48.87049160232466]}, "record_timestamp": "2017-01-01T00:01:04+01:00"},{"datasetid": "sanisettesparis2011", "recordid": "a30ac9826538f64a45a5f544b9f55e5a209c5adf", "fields": {"objectid": 125, "arrondissement": "11", "nom_voie": "RUE DE LA ROQUETTE", "geom_x_y": [48.85488819385095, 2.372855385502981], "geom": {"type": "Point", "coordinates": [2.372855385502981, 48.85488819385095]}, "y": 128270.265872, "x": 602665.978695, "numero_voie": "27", "identifiant": "11/104", "horaires_ouverture": "24 h / 24"}, "geometry": {"type": "Point", "coordinates": [2.372855385502981, 48.85488819385095]}, "record_timestamp": "2017-01-01T00:01:04+01:00"},{"datasetid": "sanisettesparis2011", "recordid": "3e8e26debeb74f71a6489cc8dfa829a75dc1b984", "fields": {"objectid": 126, "arrondissement": "11", "nom_voie": "AVENUE PHILIPPE AUGUSTE", "geom_x_y": [48.85213697258905, 2.393718342998497], "geom": {"type": "Point", "coordinates": [2.393718342998497, 48.85213697258905]}, "y": 127965.279421, "x": 604197.125754, "numero_voie": "44", "identifiant": "11/105", "horaires_ouverture": "6 h - 22 h"}, "geometry": {"type": "Point", "coordinates": [2.393718342998497, 48.85213697258905]}, "record_timestamp": "2017-01-01T00:01:04+01:00"},{"datasetid": "sanisettesparis2011", "recordid": "fbf482a136c90df5ead0768f14661eddaa9f1bb0", "fields": {"objectid": 133, "arrondissement": "11", "nom_voie": "RUE DE LA ROQUETTE", "geom_x_y": [48.85869215015876, 2.383945547253485], "geom": {"type": "Point", "coordinates": [2.383945547253485, 48.85869215015876]}, "y": 128693.721446, "x": 603479.507848, "numero_voie": "135", "identifiant": "11/114", "horaires_ouverture": "6 h - 1 h"}, "geometry": {"type": "Point", "coordinates": [2.383945547253485, 48.85869215015876]}, "record_timestamp": "2017-01-01T00:01:04+01:00"},{"datasetid": "sanisettesparis2011", "recordid": "4b0a532d2fe89af78b6c458efb0369db0f842833", "fields": {"objectid": 149, "arrondissement": "12", "nom_voie": "BOULEVARD DE REUILLY", "geom_x_y": [48.839165346012265, 2.39230258734243], "geom": {"type": "Point", "coordinates": [2.39230258734243, 48.839165346012265]}, "y": 126522.747134, "x": 604094.290085, "numero_voie": "26", "identifiant": "12/103", "horaires_ouverture": "6 h - 22 h"}, "geometry": {"type": "Point", "coordinates": [2.39230258734243, 48.839165346012265]}, "record_timestamp": "2017-01-01T00:01:04+01:00"},{"datasetid": "sanisettesparis2011", "recordid": "062f8885fa417d6d9705b1da4834f07a4fd2cb05", "fields": {"objectid": 151, "arrondissement": "12", "nom_voie": "RUE ROLAND BARTHES", "geom_x_y": [48.84449268657988, 2.377444191914515], "geom": {"type": "Point", "coordinates": [2.377444191914515, 48.84449268657988]}, "y": 127114.450731, "x": 603003.323724, "numero_voie": "29", "identifiant": "12/107", "horaires_ouverture": "24 h / 24"}, "geometry": {"type": "Point", "coordinates": [2.377444191914515, 48.84449268657988]}, "record_timestamp": "2017-01-01T00:01:04+01:00"},{"datasetid": "sanisettesparis2011", "recordid": "c512be9990ccc9cc53dd3a6095923b58776198cf", "fields": {"objectid": 155, "arrondissement": "12", "nom_voie": "AVENUE DAUMESNIL", "geom_x_y": [48.84498445220782, 2.380317842611193], "geom": {"type": "Point", "coordinates": [2.380317842611193, 48.84498445220782]}, "y": 127169.254188, "x": 603214.20398, "numero_voie": "111", "identifiant": "12/115", "horaires_ouverture": "24 h / 24"}, "geometry": {"type": "Point", "coordinates": [2.380317842611193, 48.84498445220782]}, "record_timestamp": "2017-01-01T00:01:04+01:00"},{"datasetid": "sanisettesparis2011", "recordid": "906a84655c8fb18d304bf8cdb6cc8b2369d5cffd", "fields": {"objectid": 158, "arrondissement": "12", "nom_voie": "BOULEVARD DE PICPUS", "geom_x_y": [48.843683770004624, 2.40188520758276], "geom": {"type": "Point", "coordinates": [2.40188520758276, 48.843683770004624]}, "y": 127025.764724, "x": 604797.249754, "numero_voie": "54", "identifiant": "12/120", "horaires_ouverture": "6 h - 22 h"}, "geometry": {"type": "Point", "coordinates": [2.40188520758276, 48.843683770004624]}, "record_timestamp": "2017-01-01T00:01:04+01:00"},{"datasetid": "sanisettesparis2011", "recordid": "7ab76d827db355c919304c50fb2fd9674f4e5eab", "fields": {"objectid": 161, "arrondissement": "12", "nom_voie": "COURS DE VINCENNES", "geom_x_y": [48.84710769383865, 2.407478773963453], "geom": {"type": "Point", "coordinates": [2.407478773963453, 48.84710769383865]}, "y": 127406.877939, "x": 605207.441016, "numero_voie": "90", "identifiant": "12/123", "horaires_ouverture": "6 h - 22 h"}, "geometry": {"type": "Point", "coordinates": [2.407478773963453, 48.84710769383865]}, "record_timestamp": "2017-01-01T00:01:04+01:00"},{"datasetid": "sanisettesparis2011", "recordid": "f2613460a3620f39a1d1044f9963adae59cfa549", "fields": {"objectid": 162, "arrondissement": "12", "nom_voie": "AVENUE DAUMESNIL", "geom_x_y": [48.84923929002003, 2.371083687457174], "geom": {"type": "Point", "coordinates": [2.371083687457174, 48.84923929002003]}, "y": 127642.042305, "x": 602536.25595, "numero_voie": "36", "identifiant": "12/131", "horaires_ouverture": "24 h / 24"}, "geometry": {"type": "Point", "coordinates": [2.371083687457174, 48.84923929002003]}, "record_timestamp": "2017-01-01T00:01:04+01:00"},{"datasetid": "sanisettesparis2011", "recordid": "04fda649a81369b8294d1b67c3615a7f34473f34", "fields": {"objectid": 169, "arrondissement": "12", "nom_voie": "AVENUE DE NOGENT", "geom_x_y": [48.84414119973615, 2.441132759674045], "geom": {"type": "Point", "coordinates": [2.441132759674045, 48.84414119973615]}, "y": 127079.874145, "x": 607677.805027, "identifiant": "12/162", "horaires_ouverture": "6 h - 22 h"}, "geometry": {"type": "Point", "coordinates": [2.441132759674045, 48.84414119973615]}, "record_timestamp": "2017-01-01T00:01:04+01:00"},{"datasetid": "sanisettesparis2011", "recordid": "94b4a31d7d87715e2a4db93b71fdfb33021fcecc", "fields": {"objectid": 171, "arrondissement": "13", "nom_voie": "BOULEVARD KELLERMANN", "geom_x_y": [48.81996976021128, 2.347726934756863], "geom": {"type": "Point", "coordinates": [2.347726934756863, 48.81996976021128]}, "y": 124386.725951, "x": 600822.613241, "numero_voie": "79", "identifiant": "13/102", "horaires_ouverture": "6 h - 22 h"}, "geometry": {"type": "Point", "coordinates": [2.347726934756863, 48.81996976021128]}, "record_timestamp": "2017-01-01T00:01:04+01:00"},{"datasetid": "sanisettesparis2011", "recordid": "5609b63ab2024db8e94fda9b2a2cc85eb283be77", "fields": {"objectid": 173, "arrondissement": "13", "nom_voie": "AVENUE CLAUDE REGAUD", "geom_x_y": [48.82234473268878, 2.372763636895758], "geom": {"type": "Point", "coordinates": [2.372763636895758, 48.82234473268878]}, "y": 124651.404952, "x": 602660.9624, "identifiant": "13/106", "horaires_ouverture": "6 h - 22 h"}, "geometry": {"type": "Point", "coordinates": [2.372763636895758, 48.82234473268878]}, "record_timestamp": "2017-01-01T00:01:04+01:00"},{"datasetid": "sanisettesparis2011", "recordid": "a4a833ef2c44dadbf08875c58f5ade4cf5b5fe1f", "fields": {"objectid": 175, "arrondissement": "13", "nom_voie": "AVENUE D IVRY", "geom_x_y": [48.82266348173257, 2.36685643724587], "geom": {"type": "Point", "coordinates": [2.36685643724587, 48.82266348173257]}, "y": 124686.65815, "x": 602227.19647, "numero_voie": "27", "identifiant": "13/108", "horaires_ouverture": "6 h - 22 h"}, "geometry": {"type": "Point", "coordinates": [2.36685643724587, 48.82266348173257]}, "record_timestamp": "2017-01-01T00:01:04+01:00"},{"datasetid": "sanisettesparis2011", "recordid": "1ec223fe8b28fd8e6f408037d46e2962970bd5eb", "fields": {"objectid": 177, "arrondissement": "13", "nom_voie": "BOULEVARD KELLERMANN", "geom_x_y": [48.81897694851295, 2.357591219899253], "geom": {"type": "Point", "coordinates": [2.357591219899253, 48.81897694851295]}, "y": 124276.480113, "x": 601546.989378, "numero_voie": "5", "identifiant": "13/111", "horaires_ouverture": "24 h / 24"}, "geometry": {"type": "Point", "coordinates": [2.357591219899253, 48.81897694851295]}, "record_timestamp": "2017-01-01T00:01:04+01:00"},{"datasetid": "sanisettesparis2011", "recordid": "6177a18aa92253282c4c30fef75eba3408e77ad5", "fields": {"objectid": 178, "arrondissement": "13", "nom_voie": "RUE DE LA GLACIERE", "geom_x_y": [48.82669070294048, 2.341806487785599], "geom": {"type": "Point", "coordinates": [2.341806487785599, 48.82669070294048]}, "y": 125134.052353, "x": 600387.820229, "numero_voie": "face 129", "identifiant": "13/112", "horaires_ouverture": "6 h - 22 h"}, "geometry": {"type": "Point", "coordinates": [2.341806487785599, 48.82669070294048]}, "record_timestamp": "2017-01-01T00:01:04+01:00"},{"datasetid": "sanisettesparis2011", "recordid": "6724c011a8c731c07de6c24c425fba9cf6ca84b4", "fields": {"objectid": 181, "arrondissement": "13", "nom_voie": "AVENUE DE CHOISY", "geom_x_y": [48.82819836307335, 2.358453197049667], "geom": {"type": "Point", "coordinates": [2.358453197049667, 48.82819836307335]}, "y": 125301.927, "x": 601609.995, "numero_voie": "face 159", "identifiant": "13/116", "horaires_ouverture": "6 h - 22 h"}, "geometry": {"type": "Point", "coordinates": [2.358453197049667, 48.82819836307335]}, "record_timestamp": "2017-01-01T00:01:04+01:00"},{"datasetid": "sanisettesparis2011", "recordid": "7ec4f5fb6ae1ca9a5cf095f32367df12f53ee880", "fields": {"objectid": 182, "arrondissement": "13", "nom_voie": "RUE CLISSON", "geom_x_y": [48.82937623074487, 2.365301482057994], "geom": {"type": "Point", "coordinates": [2.365301482057994, 48.82937623074487]}, "y": 125433.076281, "x": 602112.740357, "identifiant": "13/117", "horaires_ouverture": "24 h / 24"}, "geometry": {"type": "Point", "coordinates": [2.365301482057994, 48.82937623074487]}, "record_timestamp": "2017-01-01T00:01:04+01:00"},{"datasetid": "sanisettesparis2011", "recordid": "7ca7d075bdf69e48b9df18c5e39a4f7766ab4f68", "fields": {"objectid": 185, "arrondissement": "13", "nom_voie": "BOULEVARD AUGUSTE BLANQUI", "geom_x_y": [48.83113398213422, 2.344431704008934], "geom": {"type": "Point", "coordinates": [2.344431704008934, 48.83113398213422]}, "y": 125628.165533, "x": 600580.518255, "numero_voie": "100", "identifiant": "13/123", "horaires_ouverture": "24 h / 24"}, "geometry": {"type": "Point", "coordinates": [2.344431704008934, 48.83113398213422]}, "record_timestamp": "2017-01-01T00:01:04+01:00"},{"datasetid": "sanisettesparis2011", "recordid": "5db9e2bf7f112395c197e22953dce819bfc2c2a9", "fields": {"objectid": 186, "arrondissement": "13", "nom_voie": "RUE DU CHEVALERET", "geom_x_y": [48.82822850742154, 2.376734206003274], "geom": {"type": "Point", "coordinates": [2.376734206003274, 48.82822850742154]}, "y": 125305.833447, "x": 602952.167268, "numero_voie": "38", "identifiant": "13/126", "horaires_ouverture": "6 h - 22 h"}, "geometry": {"type": "Point", "coordinates": [2.376734206003274, 48.82822850742154]}, "record_timestamp": "2017-01-01T00:01:04+01:00"},{"datasetid": "sanisettesparis2011", "recordid": "4b88bdd3b3af7ce14439f82d96bc33646496edde", "fields": {"objectid": 189, "arrondissement": "13", "nom_voie": "BOULEVARD VINCENT AURIOL", "geom_x_y": [48.83523926106059, 2.368782610076463], "geom": {"type": "Point", "coordinates": [2.368782610076463, 48.83523926106059]}, "y": 126085.15359, "x": 602368.040542, "numero_voie": "44", "identifiant": "13/130", "horaires_ouverture": "24 h / 24"}, "geometry": {"type": "Point", "coordinates": [2.368782610076463, 48.83523926106059]}, "record_timestamp": "2017-01-01T00:01:04+01:00"},{"datasetid": "sanisettesparis2011", "recordid": "e1403e863704159ea853944d86e4f9e71d54f308", "fields": {"objectid": 200, "arrondissement": "14", "nom_voie": "AVENUE DU MAINE", "geom_x_y": [48.838110610351656, 2.322338362086393], "geom": {"type": "Point", "coordinates": [2.322338362086393, 48.838110610351656]}, "y": 126404.038189, "x": 598958.692725, "numero_voie": "88", "identifiant": "14/103", "horaires_ouverture": "6 h - 1 h"}, "geometry": {"type": "Point", "coordinates": [2.322338362086393, 48.838110610351656]}, "record_timestamp": "2017-01-01T00:01:04+01:00"},{"datasetid": "sanisettesparis2011", "recordid": "8cc1b7c385cadd38f684e329415d68ef9cfbd2be", "fields": {"objectid": 201, "arrondissement": "14", "nom_voie": "RUE DE L ABBE SOULANGE BODIN", "geom_x_y": [48.835486101365184, 2.31779797751881], "geom": {"type": "Point", "coordinates": [2.31779797751881, 48.835486101365184]}, "y": 126112.263413, "x": 598625.334013, "numero_voie": "oppos\u00e9 au 3", "identifiant": "14/104", "horaires_ouverture": "6 h - 22 h"}, "geometry": {"type": "Point", "coordinates": [2.31779797751881, 48.835486101365184]}, "record_timestamp": "2017-01-01T00:01:04+01:00"},{"datasetid": "sanisettesparis2011", "recordid": "53e61828a1179b4cc08999e8ab94761d76d441a4", "fields": {"objectid": 203, "arrondissement": "14", "nom_voie": "AVENUE MAURICE D OCAGNE", "geom_x_y": [48.824988520831646, 2.311279222850022], "geom": {"type": "Point", "coordinates": [2.311279222850022, 48.824988520831646]}, "y": 124945.063541, "x": 598146.405218, "numero_voie": "11", "identifiant": "14/106", "horaires_ouverture": "6 h - 22 h"}, "geometry": {"type": "Point", "coordinates": [2.311279222850022, 48.824988520831646]}, "record_timestamp": "2017-01-01T00:01:04+01:00"},{"datasetid": "sanisettesparis2011", "recordid": "83acfeab142c9e0cb06e5d27578682cb5a80781c", "fields": {"objectid": 210, "arrondissement": "14", "nom_voie": "AVENUE DU MAINE", "geom_x_y": [48.832260215072495, 2.325309662299757], "geom": {"type": "Point", "coordinates": [2.325309662299757, 48.832260215072495]}, "y": 125753.433241, "x": 599176.698399, "identifiant": "14/117", "horaires_ouverture": "6 h - 22 h"}, "geometry": {"type": "Point", "coordinates": [2.325309662299757, 48.832260215072495]}, "record_timestamp": "2017-01-01T00:01:04+01:00"},{"datasetid": "sanisettesparis2011", "recordid": "cc6de6b9f2e34baf6257a98e0f357b6734128ec3", "fields": {"objectid": 219, "arrondissement": "14", "nom_voie": "RUE DE GERGOVIE", "geom_x_y": [48.83392543480147, 2.314561722738549], "geom": {"type": "Point", "coordinates": [2.314561722738549, 48.83392543480147]}, "y": 125938.780053, "x": 598387.714458, "numero_voie": "21", "identifiant": "14/132", "horaires_ouverture": "6 h - 22 h"}, "geometry": {"type": "Point", "coordinates": [2.314561722738549, 48.83392543480147]}, "record_timestamp": "2017-01-01T00:01:04+01:00"},{"datasetid": "sanisettesparis2011", "recordid": "e50b71548fee396440cf73721672f76e7c7b75a8", "fields": {"objectid": 230, "arrondissement": "15", "nom_voie": "PLACE DE BRETEUIL", "geom_x_y": [48.84733414001092, 2.310959905453926], "geom": {"type": "Point", "coordinates": [2.310959905453926, 48.84733414001092]}, "y": 127429.921207, "x": 598123.817843, "numero_voie": "4", "identifiant": "15/102", "horaires_ouverture": "6 h - 22 h"}, "geometry": {"type": "Point", "coordinates": [2.310959905453926, 48.84733414001092]}, "record_timestamp": "2017-01-01T00:01:04+01:00"},{"datasetid": "sanisettesparis2011", "recordid": "e6eaec871904a56df19f173fd03ba0da7f07799a", "fields": {"objectid": 232, "arrondissement": "15", "nom_voie": "BOULEVARD DE VAUGIRARD", "geom_x_y": [48.84091223472186, 2.316427630336515], "geom": {"type": "Point", "coordinates": [2.316427630336515, 48.84091223472186]}, "y": 126715.679309, "x": 598524.903832, "numero_voie": "face 55", "identifiant": "15/104", "horaires_ouverture": "6 h - 22 h"}, "geometry": {"type": "Point", "coordinates": [2.316427630336515, 48.84091223472186]}, "record_timestamp": "2017-01-01T00:01:04+01:00"},{"datasetid": "sanisettesparis2011", "recordid": "33f2dbb5635232a46bc0d31be96c568045fc4098", "fields": {"objectid": 237, "arrondissement": "15", "nom_voie": "RUE SAINT CHARLES", "geom_x_y": [48.83807356396192, 2.277982877876473], "geom": {"type": "Point", "coordinates": [2.277982877876473, 48.83807356396192]}, "y": 126401.49492, "x": 595702.803335, "identifiant": "15/111", "horaires_ouverture": "6 h - 22 h"}, "geometry": {"type": "Point", "coordinates": [2.277982877876473, 48.83807356396192]}, "record_timestamp": "2017-01-01T00:01:04+01:00"},{"datasetid": "sanisettesparis2011", "recordid": "d94e4f59cde10cbb9cd175edf7551f73f3247045", "fields": {"objectid": 239, "arrondissement": "15", "nom_voie": "RUE DESNOUETTES", "geom_x_y": [48.83604524220066, 2.293417775646962], "geom": {"type": "Point", "coordinates": [2.293417775646962, 48.83604524220066]}, "y": 126175.175394, "x": 596835.661757, "numero_voie": "face 6", "identifiant": "15/113", "horaires_ouverture": "24 h / 24"}, "geometry": {"type": "Point", "coordinates": [2.293417775646962, 48.83604524220066]}, "record_timestamp": "2017-01-01T00:01:04+01:00"},{"datasetid": "sanisettesparis2011", "recordid": "5b58ff574497eaccb8d4c837be784c1ee9009133", "fields": {"objectid": 243, "arrondissement": "15", "nom_voie": "RUE DE VAUGIRARD", "geom_x_y": [48.839666053055645, 2.301959066629967], "geom": {"type": "Point", "coordinates": [2.301959066629967, 48.839666053055645]}, "y": 126577.487374, "x": 597462.842628, "numero_voie": "277", "identifiant": "15/118", "horaires_ouverture": "6 h - 22 h"}, "geometry": {"type": "Point", "coordinates": [2.301959066629967, 48.839666053055645]}, "record_timestamp": "2017-01-01T00:01:04+01:00"},{"datasetid": "sanisettesparis2011", "recordid": "de6577feb41c6c9c88076ee97d9f74f3fc90cb22", "fields": {"objectid": 244, "arrondissement": "15", "nom_voie": "RUE DESNOUETTES", "geom_x_y": [48.834628518846834, 2.284141151998802], "geom": {"type": "Point", "coordinates": [2.284141151998802, 48.834628518846834]}, "y": 126018.069017, "x": 596154.578948, "numero_voie": "83", "identifiant": "15/119", "horaires_ouverture": "6 h - 22 h"}, "geometry": {"type": "Point", "coordinates": [2.284141151998802, 48.834628518846834]}, "record_timestamp": "2017-01-01T00:01:04+01:00"},{"datasetid": "sanisettesparis2011", "recordid": "e7bf87be4af54fdc598125b6586c19ecc7306053", "fields": {"objectid": 245, "arrondissement": "15", "nom_voie": "PLACE ETIENNE PERNET", "geom_x_y": [48.84258938168304, 2.292137234463806], "geom": {"type": "Point", "coordinates": [2.292137234463806, 48.84258938168304]}, "y": 126902.943297, "x": 596742.09359, "numero_voie": "26", "identifiant": "15/121", "horaires_ouverture": "24 h / 24"}, "geometry": {"type": "Point", "coordinates": [2.292137234463806, 48.84258938168304]}, "record_timestamp": "2017-01-01T00:01:04+01:00"},{"datasetid": "sanisettesparis2011", "recordid": "2d6deba9420a600c45c16416511fde6c6b6829b8", "fields": {"objectid": 247, "arrondissement": "15", "nom_voie": "PLACE VIOLET", "geom_x_y": [48.84479731192474, 2.290479539458573], "geom": {"type": "Point", "coordinates": [2.290479539458573, 48.84479731192474]}, "y": 127148.540223, "x": 596620.57406, "numero_voie": "1", "identifiant": "15/126", "horaires_ouverture": "6 h - 22 h"}, "geometry": {"type": "Point", "coordinates": [2.290479539458573, 48.84479731192474]}, "record_timestamp": "2017-01-01T00:01:04+01:00"},{"datasetid": "sanisettesparis2011", "recordid": "eacacdeed89903a6351cabf19bd1347be4d896c7", "fields": {"objectid": 248, "arrondissement": "15", "nom_voie": "AVENUE EMILE ZOLA", "geom_x_y": [48.84624346371504, 2.277628072521375], "geom": {"type": "Point", "coordinates": [2.277628072521375, 48.84624346371504]}, "y": 127310.013436, "x": 595677.474395, "numero_voie": "face 2", "identifiant": "15/127", "horaires_ouverture": "24 h / 24"}, "geometry": {"type": "Point", "coordinates": [2.277628072521375, 48.84624346371504]}, "record_timestamp": "2017-01-01T00:01:04+01:00"},{"datasetid": "sanisettesparis2011", "recordid": "ff9f97dc5f99645f51906b2116f0850acfed2412", "fields": {"objectid": 252, "arrondissement": "15", "nom_voie": "RUE DU THEATRE", "geom_x_y": [48.84903527987034, 2.287920082919212], "geom": {"type": "Point", "coordinates": [2.287920082919212, 48.84903527987034]}, "y": 127619.923721, "x": 596433.030869, "identifiant": "15/135", "horaires_ouverture": "6 h - 1 h"}, "geometry": {"type": "Point", "coordinates": [2.287920082919212, 48.84903527987034]}, "record_timestamp": "2017-01-01T00:01:04+01:00"},{"datasetid": "sanisettesparis2011", "recordid": "07eb2192ee333ac40952d77426158e03ddce4752", "fields": {"objectid": 266, "arrondissement": "16", "nom_voie": "AVENUE DE VERSAILLES", "geom_x_y": [48.83839708158384, 2.258619850176145], "geom": {"type": "Point", "coordinates": [2.258619850176145, 48.83839708158384]}, "y": 126438.762687, "x": 594281.510382, "numero_voie": "224", "identifiant": "16/103", "horaires_ouverture": "6 h - 22 h"}, "geometry": {"type": "Point", "coordinates": [2.258619850176145, 48.83839708158384]}, "record_timestamp": "2017-01-01T00:01:04+01:00"},{"datasetid": "sanisettesparis2011", "recordid": "fc2952962aa6379499d96d9b75377fe40aa43a72", "fields": {"objectid": 271, "arrondissement": "16", "nom_voie": "BOULEVARD SUCHET", "geom_x_y": [48.86236196388364, 2.26822808173859], "geom": {"type": "Point", "coordinates": [2.26822808173859, 48.86236196388364]}, "y": 129102.985, "x": 594989.222, "identifiant": "16/108", "horaires_ouverture": "6 h - 22 h"}, "geometry": {"type": "Point", "coordinates": [2.26822808173859, 48.86236196388364]}, "record_timestamp": "2017-01-01T00:01:04+01:00"},{"datasetid": "sanisettesparis2011", "recordid": "588a3a05db430bdb1f29d743fc6bb8566c448a18", "fields": {"objectid": 280, "arrondissement": "16", "nom_voie": "AVENUE DU PARC DES PRINCES", "geom_x_y": [48.841229952302605, 2.254610907429328], "geom": {"type": "Point", "coordinates": [2.254610907429328, 48.841229952302605]}, "y": 126754.09268, "x": 593987.582726, "numero_voie": "16", "identifiant": "16/137", "horaires_ouverture": "6 h - 22 h"}, "geometry": {"type": "Point", "coordinates": [2.254610907429328, 48.841229952302605]}, "record_timestamp": "2017-01-01T00:01:04+01:00"},{"datasetid": "sanisettesparis2011", "recordid": "e5d70228b9a53e2622557cfc31003114e727895f", "fields": {"objectid": 285, "arrondissement": "17", "nom_voie": "AVENUE NIEL", "geom_x_y": [48.87892080201218, 2.294473735472731], "geom": {"type": "Point", "coordinates": [2.294473735472731, 48.87892080201218]}, "y": 130942.92271, "x": 596915.865744, "numero_voie": "4", "identifiant": "17/106", "horaires_ouverture": "6 h - 22 h"}, "geometry": {"type": "Point", "coordinates": [2.294473735472731, 48.87892080201218]}, "record_timestamp": "2017-01-01T00:01:04+01:00"},{"datasetid": "sanisettesparis2011", "recordid": "bcb4117b83d30e744158a338b2999554a8560d9f", "fields": {"objectid": 288, "arrondissement": "17", "nom_voie": "AVENUE DE VILLIERS", "geom_x_y": [48.8840275667162, 2.304206182609653], "geom": {"type": "Point", "coordinates": [2.304206182609653, 48.8840275667162]}, "y": 131510.445404, "x": 597629.931071, "numero_voie": "72", "identifiant": "17/117", "horaires_ouverture": "6 h - 22 h"}, "geometry": {"type": "Point", "coordinates": [2.304206182609653, 48.8840275667162]}, "record_timestamp": "2017-01-01T00:01:04+01:00"},{"datasetid": "sanisettesparis2011", "recordid": "a70db6c3b39ac8b661595deb403af866ed247981", "fields": {"objectid": 292, "arrondissement": "17", "nom_voie": "BOULEVARD BESSIERES", "geom_x_y": [48.894846107330885, 2.314293546244285], "geom": {"type": "Point", "coordinates": [2.314293546244285, 48.894846107330885]}, "y": 132713.207265, "x": 598370.067462, "numero_voie": "132", "identifiant": "17/142", "horaires_ouverture": "6 h - 22 h"}, "geometry": {"type": "Point", "coordinates": [2.314293546244285, 48.894846107330885]}, "record_timestamp": "2017-01-01T00:01:04+01:00"},{"datasetid": "sanisettesparis2011", "recordid": "35586cb09140f3c8558f3bc337c618efed8c3af1", "fields": {"objectid": 295, "arrondissement": "17", "nom_voie": "AVENUE NIEL", "geom_x_y": [48.88149600278608, 2.29553251986901], "geom": {"type": "Point", "coordinates": [2.29553251986901, 48.88149600278608]}, "y": 131229.243805, "x": 596993.678832, "numero_voie": "face 32", "identifiant": "17/176", "horaires_ouverture": "6 h - 22 h"}, "geometry": {"type": "Point", "coordinates": [2.29553251986901, 48.88149600278608]}, "record_timestamp": "2017-01-01T00:01:04+01:00"},{"datasetid": "sanisettesparis2011", "recordid": "0b6bdf5e86f96185c3bf26c0f02806d3cf848ad4", "fields": {"objectid": 298, "arrondissement": "18", "nom_voie": "RUE POLONCEAU", "geom_x_y": [48.885632354085274, 2.353401463347953], "geom": {"type": "Point", "coordinates": [2.353401463347953, 48.885632354085274]}, "y": 131688.532798, "x": 601237.712557, "numero_voie": "face 17", "identifiant": "18/101", "horaires_ouverture": "6 h - 22 h"}, "geometry": {"type": "Point", "coordinates": [2.353401463347953, 48.885632354085274]}, "record_timestamp": "2017-01-01T00:01:04+01:00"},{"datasetid": "sanisettesparis2011", "recordid": "dcb642e6582fc8ce40c7ebc6bc87cea971563b49", "fields": {"objectid": 305, "arrondissement": "18", "nom_voie": "RUE DE LA CHARBONNIERE", "geom_x_y": [48.88410387209199, 2.352186429401018], "geom": {"type": "Point", "coordinates": [2.352186429401018, 48.88410387209199]}, "y": 131518.545284, "x": 601148.643028, "numero_voie": "36", "identifiant": "18/108", "horaires_ouverture": "6 h - 22 h"}, "geometry": {"type": "Point", "coordinates": [2.352186429401018, 48.88410387209199]}, "record_timestamp": "2017-01-01T00:01:04+01:00"},{"datasetid": "sanisettesparis2011", "recordid": "8952e7cede798d764bae286e239f83e2b13b71c2", "fields": {"objectid": 306, "arrondissement": "18", "nom_voie": "RUE DE LA CHAPELLE", "geom_x_y": [48.89763161271532, 2.358915647403526], "geom": {"type": "Point", "coordinates": [2.358915647403526, 48.89763161271532]}, "y": 133022.964302, "x": 601641.703893, "numero_voie": "87", "identifiant": "18/109", "horaires_ouverture": "6 h - 22 h"}, "geometry": {"type": "Point", "coordinates": [2.358915647403526, 48.89763161271532]}, "record_timestamp": "2017-01-01T00:01:04+01:00"},{"datasetid": "sanisettesparis2011", "recordid": "6f2b5240c861ff3f20f155eb2362e470ce780675", "fields": {"objectid": 313, "arrondissement": "18", "nom_voie": "RUE LAMBERT", "geom_x_y": [48.88906391929743, 2.3451542774097662], "geom": {"type": "Point", "coordinates": [2.3451542774097662, 48.88906391929743]}, "y": 132070.022209, "x": 600632.869283, "numero_voie": "23", "identifiant": "18/116", "horaires_ouverture": "24 h / 24"}, "geometry": {"type": "Point", "coordinates": [2.3451542774097662, 48.88906391929743]}, "record_timestamp": "2017-01-01T00:01:04+01:00"},{"datasetid": "sanisettesparis2011", "recordid": "86ee0f1128d2bfca14194deea37ccbe3b3edd069", "fields": {"objectid": 315, "arrondissement": "18", "nom_voie": "RUE LIEUTENANT COLONEL DAX", "geom_x_y": [48.90070583792087, 2.340228068562176], "geom": {"type": "Point", "coordinates": [2.340228068562176, 48.90070583792087]}, "y": 133364.581352, "x": 600271.578439, "numero_voie": "oppos\u00e9 au 17", "identifiant": "18/118", "horaires_ouverture": "6 h - 22 h"}, "geometry": {"type": "Point", "coordinates": [2.340228068562176, 48.90070583792087]}, "record_timestamp": "2017-01-01T00:01:04+01:00"},{"datasetid": "sanisettesparis2011", "recordid": "ebcd40e4e73e20999a6cfc2135b43dcb0290351c", "fields": {"objectid": 321, "arrondissement": "18", "nom_voie": "PLACE ALBERT KAHN", "geom_x_y": [48.895774739133586, 2.346000609858457], "geom": {"type": "Point", "coordinates": [2.346000609858457, 48.895774739133586]}, "y": 132816.277434, "x": 600694.841248, "numero_voie": "face 51", "identifiant": "18/128", "horaires_ouverture": "6 h - 22 h"}, "geometry": {"type": "Point", "coordinates": [2.346000609858457, 48.895774739133586]}, "record_timestamp": "2017-01-01T00:01:04+01:00"},{"datasetid": "sanisettesparis2011", "recordid": "2ae4a2237f2ec29ad9721175544d81145e4b4878", "fields": {"objectid": 331, "arrondissement": "18", "nom_voie": "AVENUE DE LA PORTE DE CLIGNANCOURT", "geom_x_y": [48.90082579022458, 2.3438074046061512], "geom": {"type": "Point", "coordinates": [2.3438074046061512, 48.90082579022458]}, "y": 133377.939589, "x": 600533.985976, "identifiant": "18/153", "horaires_ouverture": "6 h - 22 h"}, "geometry": {"type": "Point", "coordinates": [2.3438074046061512, 48.90082579022458]}, "record_timestamp": "2017-01-01T00:01:04+01:00"},{"datasetid": "sanisettesparis2011", "recordid": "aec7283deceb4c11fb948ce4c40c371c178c118b", "fields": {"objectid": 332, "arrondissement": "18", "nom_voie": "AVENUE DE LA PORTE D AUBERVILLIERS", "geom_x_y": [48.89919884647476, 2.370126505900549], "geom": {"type": "Point", "coordinates": [2.370126505900549, 48.89919884647476]}, "y": 133197.548016, "x": 602463.569921, "numero_voie": "3", "identifiant": "18/155", "horaires_ouverture": "6 h - 22 h"}, "geometry": {"type": "Point", "coordinates": [2.370126505900549, 48.89919884647476]}, "record_timestamp": "2017-01-01T00:01:04+01:00"},{"datasetid": "sanisettesparis2011", "recordid": "cfc8bed22582a2390f0d6cb7f0e09ed36226d60a", "fields": {"objectid": 333, "arrondissement": "18", "nom_voie": "BOULEVARD DE CLICHY", "geom_x_y": [48.88421435284178, 2.3289696172819863], "geom": {"type": "Point", "coordinates": [2.3289696172819863, 48.88421435284178]}, "y": 131530.737518, "x": 599446.002228, "numero_voie": "130 ter", "identifiant": "18/156", "horaires_ouverture": "24 h / 24"}, "geometry": {"type": "Point", "coordinates": [2.3289696172819863, 48.88421435284178]}, "record_timestamp": "2017-01-01T00:01:04+01:00"},{"datasetid": "sanisettesparis2011", "recordid": "2a027ab09b819fec1cba95c75fe8ab767393cbf7", "fields": {"objectid": 335, "arrondissement": "18", "nom_voie": "BOULEVARD DE LA CHAPELLE", "geom_x_y": [48.884078656036344, 2.353429271251458], "geom": {"type": "Point", "coordinates": [2.353429271251458, 48.884078656036344]}, "y": 131515.761034, "x": 601239.789498, "numero_voie": "face 90", "identifiant": "18/161", "horaires_ouverture": "24 h / 24"}, "geometry": {"type": "Point", "coordinates": [2.353429271251458, 48.884078656036344]}, "record_timestamp": "2017-01-01T00:01:04+01:00"},{"datasetid": "sanisettesparis2011", "recordid": "acf7bb4a153138144291c024aa69ce258ecaa3b3", "fields": {"objectid": 336, "arrondissement": "18", "nom_voie": "BOULEVARD NEY", "geom_x_y": [48.89775890869896, 2.341642007680557], "geom": {"type": "Point", "coordinates": [2.341642007680557, 48.89775890869896]}, "y": 133036.887169, "x": 600375.257507, "numero_voie": "9", "identifiant": "18/166", "horaires_ouverture": "6 h - 22 h"}, "geometry": {"type": "Point", "coordinates": [2.341642007680557, 48.89775890869896]}, "record_timestamp": "2017-01-01T00:01:04+01:00"},{"datasetid": "sanisettesparis2011", "recordid": "782303e3462e01756fa21bf22489398b29408cd8", "fields": {"objectid": 337, "arrondissement": "18", "nom_voie": "RUE ORDENER", "geom_x_y": [48.89350244895922, 2.336892090886547], "geom": {"type": "Point", "coordinates": [2.336892090886547, 48.89350244895922]}, "y": 132563.552928, "x": 600027.009708, "numero_voie": "face 154", "identifiant": "18/175", "horaires_ouverture": "6 h - 22 h"}, "geometry": {"type": "Point", "coordinates": [2.336892090886547, 48.89350244895922]}, "record_timestamp": "2017-01-01T00:01:04+01:00"},{"datasetid": "sanisettesparis2011", "recordid": "ba4897458b19c4cb084573488688340631ba91a6", "fields": {"objectid": 338, "arrondissement": "18", "nom_voie": "AVENUE DE LA PORTE DE CLIGNANCOURT", "geom_x_y": [48.89919426197595, 2.343963702043887], "geom": {"type": "Point", "coordinates": [2.343963702043887, 48.89919426197595]}, "y": 133196.513851, "x": 600545.461227, "numero_voie": "15", "identifiant": "18/190", "horaires_ouverture": "6 h - 22 h"}, "geometry": {"type": "Point", "coordinates": [2.343963702043887, 48.89919426197595]}, "record_timestamp": "2017-01-01T00:01:04+01:00"},{"datasetid": "sanisettesparis2011", "recordid": "80bb4ba7e1a5cfa8b059d751961ee4094f3699a6", "fields": {"objectid": 348, "arrondissement": "19", "nom_voie": "BOULEVARD D ALGERIE", "geom_x_y": [48.88068024153816, 2.400408799321377], "geom": {"type": "Point", "coordinates": [2.400408799321377, 48.88068024153816]}, "y": 131139.705313, "x": 604685.427548, "identifiant": "19/111", "horaires_ouverture": "6 h - 22 h"}, "geometry": {"type": "Point", "coordinates": [2.400408799321377, 48.88068024153816]}, "record_timestamp": "2017-01-01T00:01:04+01:00"},{"datasetid": "sanisettesparis2011", "recordid": "d2a72e64bbcd3c6abfd3756e43f898e097653b12", "fields": {"objectid": 350, "arrondissement": "19", "nom_voie": "QUAI DE LA SEINE", "geom_x_y": [48.88723511603302, 2.375836535842065], "geom": {"type": "Point", "coordinates": [2.375836535842065, 48.88723511603302]}, "y": 131867.376095, "x": 602882.882125, "numero_voie": "face 57", "identifiant": "19/115", "horaires_ouverture": "6 h - 1 h"}, "geometry": {"type": "Point", "coordinates": [2.375836535842065, 48.88723511603302]}, "record_timestamp": "2017-01-01T00:01:04+01:00"},{"datasetid": "sanisettesparis2011", "recordid": "6b6521d42fc7ef44689f16ce684e3332b0a69d20", "fields": {"objectid": 353, "arrondissement": "19", "nom_voie": "AVENUE DE FLANDRE", "geom_x_y": [48.88577302968561, 2.37036598804957], "geom": {"type": "Point", "coordinates": [2.37036598804957, 48.88577302968561]}, "y": 131704.596, "x": 602481.788, "numero_voie": "25", "identifiant": "19/118", "horaires_ouverture": "24 h / 24"}, "geometry": {"type": "Point", "coordinates": [2.37036598804957, 48.88577302968561]}, "record_timestamp": "2017-01-01T00:01:04+01:00"},{"datasetid": "sanisettesparis2011", "recordid": "d1c1629026ec44b572a555bc9e9c03f3dc7b05ad", "fields": {"objectid": 357, "arrondissement": "19", "nom_voie": "AVENUE DE FLANDRE", "geom_x_y": [48.888695361853834, 2.373924073285048], "geom": {"type": "Point", "coordinates": [2.373924073285048, 48.888695361853834]}, "y": 132029.684906, "x": 602742.557971, "numero_voie": "69", "identifiant": "19/124", "horaires_ouverture": "24 h / 24"}, "geometry": {"type": "Point", "coordinates": [2.373924073285048, 48.888695361853834]}, "record_timestamp": "2017-01-01T00:01:04+01:00"},{"datasetid": "sanisettesparis2011", "recordid": "e5969be1fd5f5bddf37fc0315e0c39e0650dfcda", "fields": {"objectid": 364, "arrondissement": "19", "nom_voie": "RUE BOTZARIS", "geom_x_y": [48.87786391522245, 2.381250823187719], "geom": {"type": "Point", "coordinates": [2.381250823187719, 48.87786391522245]}, "y": 130825.514, "x": 603280.534, "numero_voie": "3", "identifiant": "19/138", "horaires_ouverture": "24 h / 24"}, "geometry": {"type": "Point", "coordinates": [2.381250823187719, 48.87786391522245]}, "record_timestamp": "2017-01-01T00:01:04+01:00"},{"datasetid": "sanisettesparis2011", "recordid": "e80a97b6e40a093bf252ef897b1f94313113c457", "fields": {"objectid": 369, "arrondissement": "20", "nom_voie": "RUE ALEXANDRE DUMAS", "geom_x_y": [48.85540399050096, 2.400081527560205], "geom": {"type": "Point", "coordinates": [2.400081527560205, 48.85540399050096]}, "y": 128328.948732, "x": 604663.775999, "numero_voie": "101", "identifiant": "20/101", "horaires_ouverture": "6 h - 22 h"}, "geometry": {"type": "Point", "coordinates": [2.400081527560205, 48.85540399050096]}, "record_timestamp": "2017-01-01T00:01:04+01:00"},{"datasetid": "sanisettesparis2011", "recordid": "d3873828a8f98f8129e31e0030e23f173c19b2e9", "fields": {"objectid": 375, "arrondissement": "20", "nom_voie": "COURS DE VINCENNES", "geom_x_y": [48.84826364729009, 2.400031594154966], "geom": {"type": "Point", "coordinates": [2.400031594154966, 48.84826364729009]}, "y": 127534.934353, "x": 604660.775624, "numero_voie": "9", "identifiant": "20/107", "horaires_ouverture": "6 h - 22 h"}, "geometry": {"type": "Point", "coordinates": [2.400031594154966, 48.84826364729009]}, "record_timestamp": "2017-01-01T00:01:04+01:00"},{"datasetid": "sanisettesparis2011", "recordid": "6a3cc4c3029d1cb977bb014eb65b9149a0cbbc01", "fields": {"objectid": 378, "arrondissement": "20", "nom_voie": "RUE DE LA CROIX SAINT SIMON", "geom_x_y": [48.85577187957395, 2.409918202136271], "geom": {"type": "Point", "coordinates": [2.409918202136271, 48.85577187957395]}, "y": 128370.512248, "x": 605385.541912, "identifiant": "20/110", "horaires_ouverture": "6 h - 22 h"}, "geometry": {"type": "Point", "coordinates": [2.409918202136271, 48.85577187957395]}, "record_timestamp": "2017-01-01T00:01:04+01:00"},{"datasetid": "sanisettesparis2011", "recordid": "4e4815bece22ed3a16ebfca5d768c8c1d3034e18", "fields": {"objectid": 382, "arrondissement": "20", "nom_voie": "RUE DU VOLGA", "geom_x_y": [48.85271966099392, 2.4089887115214133], "geom": {"type": "Point", "coordinates": [2.4089887115214133, 48.85271966099392]}, "y": 128031.03772, "x": 605317.661455, "numero_voie": "64", "identifiant": "20/114", "horaires_ouverture": "6 h - 22 h"}, "geometry": {"type": "Point", "coordinates": [2.4089887115214133, 48.85271966099392]}, "record_timestamp": "2017-01-01T00:01:04+01:00"},{"datasetid": "sanisettesparis2011", "recordid": "81555999a919464e10bb3fce7941feaeb6f5dd50", "fields": {"objectid": 384, "arrondissement": "20", "nom_voie": "PLACE DE LA PORTE DE BAGNOLET", "geom_x_y": [48.86412097277738, 2.408985777918256], "geom": {"type": "Point", "coordinates": [2.408985777918256, 48.86412097277738]}, "y": 129298.870868, "x": 605316.235561, "numero_voie": "6", "identifiant": "20/118", "horaires_ouverture": "24 h / 24"}, "geometry": {"type": "Point", "coordinates": [2.408985777918256, 48.86412097277738]}, "record_timestamp": "2017-01-01T00:01:04+01:00"},{"datasetid": "sanisettesparis2011", "recordid": "bd7120582e740bcc8e87c9444aaf9ff79d603a62", "fields": {"objectid": 388, "arrondissement": "20", "nom_voie": "RUE DE MENILMONTANT", "geom_x_y": [48.87058589215593, 2.398201793526344], "geom": {"type": "Point", "coordinates": [2.398201793526344, 48.87058589215593]}, "y": 130017.071933, "x": 604524.473044, "numero_voie": "157", "identifiant": "20/132", "horaires_ouverture": "6 h - 22 h"}, "geometry": {"type": "Point", "coordinates": [2.398201793526344, 48.87058589215593]}, "record_timestamp": "2017-01-01T00:01:04+01:00"},{"datasetid": "sanisettesparis2011", "recordid": "9516b1e200cdfb8e86fb714df5ee2a14e9d557e5", "fields": {"objectid": 391, "arrondissement": "20", "nom_voie": "RUE DES PYRENEES", "geom_x_y": [48.860015710231416, 2.401021510074872], "geom": {"type": "Point", "coordinates": [2.401021510074872, 48.860015710231416]}, "y": 128841.833617, "x": 604732.315642, "numero_voie": "171", "identifiant": "20/144", "horaires_ouverture": "6 h - 22 h"}, "geometry": {"type": "Point", "coordinates": [2.401021510074872, 48.860015710231416]}, "record_timestamp": "2017-01-01T00:01:04+01:00"},{"datasetid": "sanisettesparis2011", "recordid": "b27a0476a6a38caa1a2ecc87f67cb79c6db36739", "fields": {"objectid": 1, "arrondissement": "01", "nom_voie": "BOULEVARD DE SEBASTOPOL", "geom_x_y": [48.85985523591091, 2.348837231996497], "geom": {"type": "Point", "coordinates": [2.348837231996497, 48.85985523591091]}, "y": 128822.034078, "x": 600903.447557, "numero_voie": "23", "identifiant": "1/103", "horaires_ouverture": "24 h / 24"}, "geometry": {"type": "Point", "coordinates": [2.348837231996497, 48.85985523591091]}, "record_timestamp": "2017-01-01T00:01:04+01:00"},{"datasetid": "sanisettesparis2011", "recordid": "20b9e8db2bd93e5e656c2e6fbdbd03172bc3a9b0", "fields": {"objectid": 4, "arrondissement": "01", "nom_voie": "RUE SAINT DENIS", "geom_x_y": [48.858021645472014, 2.347377818331577], "geom": {"type": "Point", "coordinates": [2.347377818331577, 48.858021645472014]}, "y": 128618.121, "x": 600796.395, "numero_voie": "2", "identifiant": "1/113", "horaires_ouverture": "24 h / 24"}, "geometry": {"type": "Point", "coordinates": [2.347377818331577, 48.858021645472014]}, "record_timestamp": "2017-01-01T00:01:04+01:00"},{"datasetid": "sanisettesparis2011", "recordid": "ba07cf8c058ea324d81a45803b60498a1f9ee3b8", "fields": {"objectid": 6, "arrondissement": "01", "nom_voie": "RUE BERGER", "geom_x_y": [48.862340299170015, 2.342203223237543], "geom": {"type": "Point", "coordinates": [2.342203223237543, 48.862340299170015]}, "y": 129098.316318, "x": 600416.675609, "numero_voie": "44", "identifiant": "1/125", "horaires_ouverture": "6 h - 1 h"}, "geometry": {"type": "Point", "coordinates": [2.342203223237543, 48.862340299170015]}, "record_timestamp": "2017-01-01T00:01:04+01:00"},{"datasetid": "sanisettesparis2011", "recordid": "e23da13f85531f1ffef0ebe28bbbdacd31bc0abf", "fields": {"objectid": 9, "arrondissement": "02", "nom_voie": "BOULEVARD DE SEBASTOPOL", "geom_x_y": [48.86366249323445, 2.350962737779847], "geom": {"type": "Point", "coordinates": [2.350962737779847, 48.86366249323445]}, "y": 129245.431608, "x": 601059.322524, "numero_voie": "69", "identifiant": "2/101", "horaires_ouverture": "6 h - 22 h"}, "geometry": {"type": "Point", "coordinates": [2.350962737779847, 48.86366249323445]}, "record_timestamp": "2017-01-01T00:01:04+01:00"},